,name,longitude_x,latitude_x,latitude_y,longitude_y,sido,gu,dong
0,종로2가사거리,126.9877498816,37.56976512510001,37.56976512510001,126.9877498816,서울특별시,종로구,종로1.2.3.4가동
1,창경궁.서울대학교병원,126.9965660023,37.5791830159,37.5791830159,126.9965660023,서울특별시,종로구,종로1.2.3.4가동
2,명륜3가.성대입구,126.9983401004,37.5826711749,37.5826711749,126.9983401004,서울특별시,종로구,혜화동
3,종로2가.삼일교,126.9876130976,37.5685792736,37.5685792736,126.9876130976,서울특별시,종로구,종로1.2.3.4가동
4,혜화동로터리,127.001744,37.586243,37.586243,127.001744,서울특별시,종로구,혜화동
5,서대문역사거리,126.966893,37.566137,37.566137,126.966893,서울특별시,종로구,교남동
6,서울역사박물관.경희궁앞,126.97038,37.569135,37.569135,126.97038,서울특별시,종로구,사직동
7,서울역사박물관.경희궁앞,126.970609,37.569412,37.569412,126.970609,서울특별시,종로구,사직동
8,광화문,126.9752507511,37.570135474,37.570135474,126.9752507511,서울특별시,종로구,사직동
9,광화문,126.978085488,37.570216807,37.570216807,126.978085488,서울특별시,종로구,종로1.2.3.4가동
10,종로1가,126.9809105247,37.5701184824,37.5701184824,126.9809105247,서울특별시,종로구,종로1.2.3.4가동
11,종로1가,126.9813906402,37.5702290311,37.5702290311,126.9813906402,서울특별시,종로구,종로1.2.3.4가동
12,종로2가,126.9855426998,37.5701386788,37.5701386788,126.9855426998,서울특별시,종로구,종로1.2.3.4가동
13,종로2가,126.9862474502,37.5702571998,37.5702571998,126.9862474502,서울특별시,종로구,종로1.2.3.4가동
14,종로3가.탑골공원,126.9895646721,37.5702449756,37.5702449756,126.9895646721,서울특별시,종로구,종로1.2.3.4가동
15,종로3가.탑골공원,126.9899877751,37.5703605443,37.5703605443,126.9899877751,서울특별시,종로구,종로1.2.3.4가동
16,종로4가.종묘,126.9947218896,37.5705069968,37.5705069968,126.9947218896,서울특별시,종로구,종로1.2.3.4가동
17,종로4가.종묘,126.9952838124,37.5706271118,37.5706271118,126.9952838124,서울특별시,종로구,종로1.2.3.4가동
18,종로5가.광장시장,126.9988498093,37.570756793,37.570756793,126.9988498093,서울특별시,종로구,종로1.2.3.4가동
19,종로5가.광장시장,126.9993346185,37.5708806279,37.5708806279,126.9993346185,서울특별시,종로구,종로1.2.3.4가동
20,종로6가.동대문종합시장,127.0034638793,37.5709624756,37.5709624756,127.0034638793,서울특별시,종로구,종로5.6가동
21,종로6가.동대문종합시장,127.0057137364,37.5711272339,37.5711272339,127.0057137364,서울특별시,종로구,종로5.6가동
22,동대문역.흥인지문,127.0134512388,37.5723023219,37.5723023219,127.0134512388,서울특별시,종로구,창신1동
23,동대문(흥인지문),127.0120461121,37.5719529259,37.5719529259,127.0120461121,서울특별시,종로구,창신1동
24,동묘앞,127.0184514373,37.5737255179,37.5737255179,127.0184514373,서울특별시,종로구,숭인2동
25,동묘앞,127.0196720085,37.5742434484,37.5742434484,127.0196720085,서울특별시,종로구,숭인2동
26,경기상고,126.9693634554,37.5875502159,37.5875502159,126.9693634554,서울특별시,종로구,청운효자동
27,신교동,126.9702653687,37.5832657654,37.5832657654,126.9702653687,서울특별시,종로구,청운효자동
28,경기상고,126.9697701102,37.5871907861,37.5871907861,126.9697701102,서울특별시,종로구,청운효자동
29,경복고교,126.9710436571,37.58511319300001,37.58511319300001,126.9710436571,서울특별시,종로구,청운효자동
30,청운중학교,126.9725135095,37.5878519552,37.5878519552,126.9725135095,서울특별시,종로구,청운효자동
31,자하문고개.윤동주문학관,126.9671261805,37.5921866176,37.5921866176,126.9671261805,서울특별시,종로구,청운효자동
32,자하문고개.윤동주문학관,126.9671906625,37.5923353152,37.5923353152,126.9671906625,서울특별시,종로구,청운효자동
33,청운중학교,126.9724613198,37.5881285775,37.5881285775,126.9724613198,서울특별시,종로구,청운효자동
34,경복고교,126.9711546793,37.5849663426,37.5849663426,126.9711546793,서울특별시,종로구,청운효자동
35,통인시장종로구보건소,126.9710500404,37.5803257033,37.5803257033,126.9710500404,서울특별시,종로구,청운효자동
36,통인시장종로구보건소,126.9713851083,37.5805132118,37.5805132118,126.9713851083,서울특별시,종로구,청운효자동
37,효자동,126.9706209712,37.583091043,37.583091043,126.9706209712,서울특별시,종로구,청운효자동
38,사직단,126.9679907155,37.5751355316,37.5751355316,126.9679907155,서울특별시,종로구,사직동
39,사직동주민센터,126.9713244962,37.5761834563,37.5761834563,126.9713244962,서울특별시,종로구,사직동
40,경복궁역,126.97219601,37.5768666917,37.5768666917,126.97219601,서울특별시,종로구,사직동
41,경복궁역,126.9722828893,37.5776713863,37.5776713863,126.9722828893,서울특별시,종로구,사직동
42,경복궁,126.9787471496,37.5755767894,37.5755767894,126.9787471496,서울특별시,종로구,종로1.2.3.4가동
43,KT광화문지사,126.9773193291,37.5724064843,37.5724064843,126.9773193291,서울특별시,종로구,종로1.2.3.4가동
44,광화문,126.9763838838,37.56984539800001,37.56984539800001,126.9763838838,서울특별시,종로구,사직동
45,서울역사박물관.경교장.강북삼성병원,126.971248,37.570023,37.570023,126.971248,서울특별시,종로구,사직동
46,광화문,126.975837,37.570365,37.570365,126.975837,서울특별시,종로구,사직동
47,세종문화회관,126.9765652658,37.5726577416,37.5726577416,126.9765652658,서울특별시,종로구,사직동
48,서울지방경찰청.경복궁역,126.9714842989,37.5757446636,37.5757446636,126.9714842989,서울특별시,종로구,사직동
49,사직단,126.968188961,37.5748553458,37.5748553458,126.968188961,서울특별시,종로구,사직동
50,광화문광화문빌딩,126.9765458935,37.569450752,37.569450752,126.9765458935,서울특별시,종로구,사직동
51,덕성여중고,126.9819692323,37.5757260055,37.5757260055,126.9819692323,서울특별시,종로구,삼청동
52,안국역.종로경찰서.인사동,126.9840715924,37.5760056461,37.5760056461,126.9840715924,서울특별시,종로구,삼청동
53,국민은행세검정지점,126.9608880061,37.6046629766,37.6046629766,126.9608880061,서울특별시,종로구,부암동
54,세검정초등학교,126.9612198463,37.60250227989999,37.60250227989999,126.9612198463,서울특별시,종로구,부암동
55,세검정.상명대,126.9587223861,37.6007325989,37.6007325989,126.9587223861,서울특별시,종로구,부암동
56,상명대입구,126.958570225,37.5994133537,37.5994133537,126.958570225,서울특별시,종로구,부암동
57,하림각,126.9617068235,37.5981330665,37.5981330665,126.9617068235,서울특별시,종로구,부암동
58,자하문터널입구.석파정,126.9636434993,37.5955935123,37.5955935123,126.9636434993,서울특별시,종로구,부암동
59,부암동주민센터.무계원,126.9639574356,37.5927380599,37.5927380599,126.9639574356,서울특별시,종로구,부암동
60,부암동주민센터.무계원,126.9651419211,37.5927861733,37.5927861733,126.9651419211,서울특별시,종로구,부암동
61,자하문터널입구.석파정,126.9639775924,37.5955575712,37.5955575712,126.9639775924,서울특별시,종로구,부암동
62,하림각,126.962215308,37.5981476478,37.5981476478,126.962215308,서울특별시,종로구,부암동
63,상명대입구.세검정교회,126.9592405649,37.5996163318,37.5996163318,126.9592405649,서울특별시,종로구,부암동
64,세검정.상명대,126.9589342697,37.6005524553,37.6005524553,126.9589342697,서울특별시,종로구,부암동
65,세검정초등학교,126.9614328894,37.6022680671,37.6022680671,126.9614328894,서울특별시,종로구,부암동
66,국민은행세검정지점,126.9612088135,37.6047191923,37.6047191923,126.9612088135,서울특별시,종로구,부암동
67,승가사입구,126.9563059978,37.6115844138,37.6115844138,126.9563059978,서울특별시,종로구,평창동
68,구기동현대빌라,126.9564575503,37.6100355035,37.6100355035,126.9564575503,서울특별시,종로구,평창동
69,구기터널한국고전번역원,126.9562103294,37.6086098941,37.6086098941,126.9562103294,서울특별시,종로구,평창동
70,구기터널앞.한국고전번역원,126.9564166508,37.6083054034,37.6083054034,126.9564166508,서울특별시,종로구,평창동
71,구기동,126.9585297928,37.6069644475,37.6069644475,126.9585297928,서울특별시,종로구,평창동
72,구기동,126.9591017479,37.6070088003,37.6070088003,126.9591017479,서울특별시,종로구,평창동
73,승가사입구,126.956482,37.61148,37.61148,126.956482,서울특별시,종로구,평창동
74,갑을씨티텔앞,126.9635350292,37.6043709709,37.6043709709,126.9635350292,서울특별시,종로구,평창동
75,평창파출소,126.9660432906,37.6053223656,37.6053223656,126.9660432906,서울특별시,종로구,평창동
76,평창동주민센터,126.9695663093,37.6066073749,37.6066073749,126.9695663093,서울특별시,종로구,평창동
77,일성아파트,126.9729985215,37.6087663115,37.6087663115,126.9729985215,서울특별시,종로구,평창동
78,롯데아파트,126.9764662019,37.6104295575,37.6104295575,126.9764662019,서울특별시,종로구,평창동
79,롯데아파트,126.976652,37.610248,37.610248,126.976652,서울특별시,종로구,평창동
80,벽산평창힐스아파트,126.972797,37.60819,37.60819,126.972797,서울특별시,종로구,평창동
81,예능교회,126.97,37.606517,37.606517,126.97,서울특별시,종로구,평창동
82,서울예술고등학교.평창동주민센터,126.9676276108,37.6057787606,37.6057787606,126.9676276108,서울특별시,종로구,평창동
83,화정박물관,126.9648102665,37.6045038178,37.6045038178,126.9648102665,서울특별시,종로구,평창동
84,강북삼성병원,126.9686004828,37.568145927,37.568145927,126.9686004828,서울특별시,종로구,교남동
85,독립문역,126.9594644024,37.5732126863,37.5732126863,126.9594644024,서울특별시,종로구,무악동
86,서대문.서울시교육청,126.9645273358,37.5682538056,37.5682538056,126.9645273358,서울특별시,종로구,교남동
87,서대문역사거리.적십자병원,126.9675878497,37.5671081521,37.5671081521,126.9675878497,서울특별시,종로구,교남동
88,독립문,126.9615632709,37.5711733169,37.5711733169,126.9615632709,서울특별시,종로구,교남동
89,창덕궁.서울돈화문국악당,126.9886000241,37.5774623333,37.5774623333,126.9886000241,서울특별시,종로구,종로1.2.3.4가동
90,무교동,126.9802681756,37.5692423794,37.5692423794,126.9802681756,서울특별시,종로구,종로1.2.3.4가동
91,청계1가.광교,126.9849267193,37.568684389,37.568684389,126.9849267193,서울특별시,종로구,종로1.2.3.4가동
92,청계2가.수표교,126.9906741813,37.5684371825,37.5684371825,126.9906741813,서울특별시,종로구,종로1.2.3.4가동
93,청계4가.세운교,126.9964906282,37.5688691218,37.5688691218,126.9964906282,서울특별시,종로구,종로1.2.3.4가동
94,청계5가.광장시장,126.9997973605,37.5694512793,37.5694512793,126.9997973605,서울특별시,종로구,종로1.2.3.4가동
95,종로2가,126.9874612934,37.5692316483,37.5692316483,126.9874612934,서울특별시,종로구,종로1.2.3.4가동
96,원남동,126.9973383362,37.5745325055,37.5745325055,126.9973383362,서울특별시,종로구,종로1.2.3.4가동
97,창덕궁.서울돈화문국악당,126.9878777332,37.5771946373,37.5771946373,126.9878777332,서울특별시,종로구,종로1.2.3.4가동
98,안국역.종로경찰서.인사동,126.9842425956,37.5757849018,37.5757849018,126.9842425956,서울특별시,종로구,종로1.2.3.4가동
99,조계사,126.9832244185,37.5723660209,37.5723660209,126.9832244185,서울특별시,종로구,종로1.2.3.4가동
100,조계사,126.9828258888,37.5724858087,37.5724858087,126.9828258888,서울특별시,종로구,종로1.2.3.4가동
101,안국동,126.9827201116,37.5746105669,37.5746105669,126.9827201116,서울특별시,종로구,종로1.2.3.4가동
102,종로5가.효제동,127.00223,37.5745,37.5745,127.00223,서울특별시,종로구,종로5.6가동
103,종로5가.효제초등학교,127.0021442279,37.5728790133,37.5728790133,127.0021442279,서울특별시,종로구,종로5.6가동
104,종로5가,127.0021826522,37.5705596025,37.5705596025,127.0021826522,서울특별시,종로구,종로5.6가동
105,청계6가.동대문시장,127.0028494203,37.5698351103,37.5698351103,127.0028494203,서울특별시,종로구,종로5.6가동
106,동대문,127.0084126252,37.5717262368,37.5717262368,127.0084126252,서울특별시,종로구,종로5.6가동
107,충신동,127.006278812,37.5740223509,37.5740223509,127.006278812,서울특별시,종로구,종로5.6가동
108,충신동,127.0063433807,37.5744602778,37.5744602778,127.0063433807,서울특별시,종로구,종로5.6가동
109,현대그룹빌딩,127.000533,37.575873,37.575873,127.000533,서울특별시,종로구,종로5.6가동
110,통신대(이화장),127.002437,37.578043,37.578043,127.002437,서울특별시,종로구,이화동
111,혜화역.마로니에공원,127.0022769364,37.5811194873,37.5811194873,127.0022769364,서울특별시,종로구,이화동
112,혜화역.서울대병원입구,127.0019395272,37.5810636257,37.5810636257,127.0019395272,서울특별시,종로구,이화동
113,통신대(이화장),127.0019937965,37.5781296741,37.5781296741,127.0019937965,서울특별시,종로구,이화동
114,이화동(이화장),127.0006951494,37.576119355,37.576119355,127.0006951494,서울특별시,종로구,이화동
115,창경궁.서울대학교병원,126.9968717143,37.5788279947,37.5788279947,126.9968717143,서울특별시,종로구,이화동
116,이화동(이화장),127.0032708172,37.5759372914,37.5759372914,127.0032708172,서울특별시,종로구,이화동
117,혜화동로타리,127.0007246792,37.5857646257,37.5857646257,127.0007246792,서울특별시,종로구,혜화동
118,명륜동2가.성균관대입구,126.9993987623,37.5833334862,37.5833334862,126.9993987623,서울특별시,종로구,혜화동
119,혜화역.서울연극센터(장면총리가옥),127.0013281701,37.584022814,37.584022814,127.0013281701,서울특별시,종로구,혜화동
120,혜화역.동성중고(장면총리가옥),127.0017176887,37.5845697705,37.5845697705,127.0017176887,서울특별시,종로구,혜화동
121,창신동두산아파트,127.0155555279,37.5740926792,37.5740926792,127.0155555279,서울특별시,종로구,창신1동
122,동묘역앞,127.0156014431,37.5716849566,37.5716849566,127.0156014431,서울특별시,종로구,창신1동
123,동묘역앞,127.0158879092,37.5718984771,37.5718984771,127.0158879092,서울특별시,종로구,숭인2동
124,창신3동주민센터,127.015178,37.578413,37.578413,127.015178,서울특별시,종로구,창신3동
125,숭인1동주민센터,127.0155485759,37.5787720457,37.5787720457,127.0155485759,서울특별시,종로구,숭인1동
126,종로구민회관숭인동,127.0158023517,37.5741800523,37.5741800523,127.0158023517,서울특별시,종로구,숭인1동
127,신설동로타리,127.0227802373,37.5759288312,37.5759288312,127.0227802373,서울특별시,종로구,숭인2동
128,동묘앞,127.0178163138,37.5737292199,37.5737292199,127.0178163138,서울특별시,종로구,숭인1동
129,구기동현대빌라,126.956622,37.609682,37.609682,126.956622,서울특별시,종로구,평창동
130,광장시장,126.9977437946,37.5694963125,37.5694963125,126.9977437946,서울특별시,종로구,종로1.2.3.4가동
131,혜화경찰서,126.9974787875,37.5725807445,37.5725807445,126.9974787875,서울특별시,종로구,종로1.2.3.4가동
132,서울역사박물관(경교장),126.9721318077,37.5699003386,37.5699003386,126.9721318077,서울특별시,종로구,사직동
133,청계3가.관수교,126.9937793705,37.5686887917,37.5686887917,126.9937793705,서울특별시,종로구,종로1.2.3.4가동
134,청계6가.버들다리,127.0080377075,37.5699303868,37.5699303868,127.0080377075,서울특별시,종로구,종로5.6가동
135,청계7가.맑은내다리,127.0129554377,37.5699975315,37.5699975315,127.0129554377,서울특별시,종로구,창신1동
136,청계8가.영도교,127.0182311268,37.5709465856,37.5709465856,127.0182311268,서울특별시,종로구,창신1동
137,원남동사거리,126.9968333463,37.5758291633,37.5758291633,126.9968333463,서울특별시,종로구,종로1.2.3.4가동
138,숭인동,127.0204373408,37.5742721533,37.5742721533,127.0204373408,서울특별시,종로구,숭인2동
139,조계사,126.9831609226,37.572800338,37.572800338,126.9831609226,서울특별시,종로구,종로1.2.3.4가동
140,세종문화회관,126.9763658004,37.5733335205,37.5733335205,126.9763658004,서울특별시,종로구,사직동
141,이화동(이화장),127.002955,37.576257,37.576257,127.002955,서울특별시,종로구,이화동
142,상명대정문,126.9550207178,37.6016197182,37.6016197182,126.9550207178,서울특별시,종로구,부암동
143,이북오도청,126.9558882973,37.6130503244,37.6130503244,126.9558882973,서울특별시,종로구,평창동
144,상명대입구.세검정교회,126.9597921957,37.5994435122,37.5994435122,126.9597921957,서울특별시,종로구,부암동
145,상명대입구,126.9581941404,37.5995718125,37.5995718125,126.9581941404,서울특별시,종로구,부암동
146,종로중부새마을금고,127.0065911394,37.5724174899,37.5724174899,127.0065911394,서울특별시,종로구,종로5.6가동
147,신설동로터리.신한은행앞.서울풍물시장,127.0231182769,37.57438609739999,37.57438609739999,127.0231182769,서울특별시,종로구,숭인2동
148,청계2가.삼일교,126.9872214307,37.5684458702,37.5684458702,126.9872214307,서울특별시,종로구,종로1.2.3.4가동
149,청계8가.황학교,127.0227870051,37.5721307298,37.5721307298,127.0227870051,서울특별시,종로구,숭인2동
150,평창동삼성아파트,126.978368,37.610967,37.610967,126.978368,서울특별시,종로구,평창동
151,안국역.종로경찰서.인사동,126.9855365486,37.5763329308,37.5763329308,126.9855365486,서울특별시,종로구,종로1.2.3.4가동
152,안국역.종로경찰서.인사동,126.9848289423,37.5763382485,37.5763382485,126.9848289423,서울특별시,종로구,삼청동
153,창덕궁,126.9890031166,37.5772280879,37.5772280879,126.9890031166,서울특별시,종로구,종로1.2.3.4가동
154,평창동주민센터,126.9668167021,37.605681218,37.605681218,126.9668167021,서울특별시,종로구,평창동
155,삼청공원,126.9816468946,37.5882276807,37.5882276807,126.9816468946,서울특별시,종로구,삼청동
156,수성동계곡,126.964246771,37.5820791626,37.5820791626,126.964246771,서울특별시,종로구,청운효자동
157,명륜3가종점,126.9928636796,37.5909483783,37.5909483783,126.9928636796,서울특별시,종로구,혜화동
158,명륜새마을금고,126.996704891,37.5876532654,37.5876532654,126.996704891,서울특별시,종로구,혜화동
159,서대문3번출구,126.9662183105,37.5664160731,37.5664160731,126.9662183105,서울특별시,종로구,교남동
160,낙산공원,127.0087215681,37.5804037213,37.5804037213,127.0087215681,서울특별시,종로구,창신2동
161,세탁소,126.9893670844,37.5814109836,37.5814109836,126.9893670844,서울특별시,종로구,가회동
162,평화동물병원,126.9648837454,37.6048011982,37.6048011982,126.9648837454,서울특별시,종로구,평창동
163,금융연수원,126.9815691643,37.5865984991,37.5865984991,126.9815691643,서울특별시,종로구,삼청동
164,한아름슈퍼,126.966603478,37.5809967425,37.5809967425,126.966603478,서울특별시,종로구,청운효자동
165,샘미용실,126.9932227051,37.5903095275,37.5903095275,126.9932227051,서울특별시,종로구,혜화동
166,서울국제고등학교,126.9972902593,37.58907159469999,37.58907159469999,126.9972902593,서울특별시,종로구,혜화동
167,평화동물병원,126.9652007897,37.6049806084,37.6049806084,126.9652007897,서울특별시,종로구,평창동
168,적십자병원후문앞,126.9652272769,37.5675295356,37.5675295356,126.9652272769,서울특별시,종로구,교남동
169,서울성곽.성대후문,126.9896320737,37.5892576959,37.5892576959,126.9896320737,서울특별시,종로구,혜화동
170,빨래터,126.9893714358,37.582659895,37.582659895,126.9893714358,서울특별시,종로구,가회동
171,세검초등학교,126.9614907597,37.6042522792,37.6042522792,126.9614907597,서울특별시,종로구,부암동
172,삼청동주민센터,126.9819071619,37.5842638281,37.5842638281,126.9819071619,서울특별시,종로구,삼청동
173,통인시장,126.9687504304,37.5804530718,37.5804530718,126.9687504304,서울특별시,종로구,청운효자동
174,양현관,126.9936043615,37.5897914226,37.5897914226,126.9936043615,서울특별시,종로구,혜화동
175,국민생활관,126.9988619666,37.5897456349,37.5897456349,126.9988619666,서울특별시,종로구,혜화동
176,오거리,126.9622629001,37.6070621164,37.6070621164,126.9622629001,서울특별시,종로구,평창동
177,경희궁자이2.3단지,126.9640686009,37.5687871134,37.5687871134,126.9640686009,서울특별시,종로구,교남동
178,창신쌍용2단지.한성대후문,127.0127581151,37.5812647965,37.5812647965,127.0127581151,서울특별시,종로구,창신3동
179,통일부,126.9859476734,37.5875948053,37.5875948053,126.9859476734,서울특별시,종로구,삼청동
180,원서고개,126.9878088426,37.583080553,37.583080553,126.9878088426,서울특별시,종로구,가회동
181,설악냉면,126.9591855785,37.6069799945,37.6069799945,126.9591855785,서울특별시,종로구,평창동
182,종로5가입구,126.997541081,37.571747236,37.571747236,126.997541081,서울특별시,종로구,종로1.2.3.4가동
183,삼청파출소,126.9812510491,37.58181366199999,37.58181366199999,126.9812510491,서울특별시,종로구,삼청동
184,오거리,126.9695411172,37.5794963204,37.5794963204,126.9695411172,서울특별시,종로구,청운효자동
185,명륜시장.성대후문,126.9952543092,37.5885110529,37.5885110529,126.9952543092,서울특별시,종로구,혜화동
186,혜화초등학교,126.9998516643,37.5872532276,37.5872532276,126.9998516643,서울특별시,종로구,혜화동
187,청련사입구,126.9624312007,37.6079803769,37.6079803769,126.9624312007,서울특별시,종로구,평창동
188,영천시장,126.9628351888,37.5700050081,37.5700050081,126.9628351888,서울특별시,종로구,교남동
189,명신초.삼선푸르지오.힐스테이트,127.014556281,37.5821062067,37.5821062067,127.014556281,서울특별시,종로구,창신3동
190,감사원,126.9852900569,37.58621065179999,37.58621065179999,126.9852900569,서울특별시,종로구,가회동
191,중앙중고,126.986965299,37.583092177,37.583092177,126.986965299,서울특별시,종로구,가회동
192,인왕빌딩,126.9577443332,37.6079283311,37.6079283311,126.9577443332,서울특별시,종로구,평창동
193,종묘공원,126.9933305456,37.5706349329,37.5706349329,126.9933305456,서울특별시,종로구,종로1.2.3.4가동
194,국립민속박물관,126.9795533717,37.5792551846,37.5792551846,126.9795533717,서울특별시,종로구,청운효자동
195,새마을금고앞,126.9711466491,37.5793687689,37.5793687689,126.9711466491,서울특별시,종로구,청운효자동
196,새마을금고,126.996518051,37.5877370613,37.5877370613,126.996518051,서울특별시,종로구,혜화동
197,혜화우체국,127.0006137149,37.5860376565,37.5860376565,127.0006137149,서울특별시,종로구,혜화동
198,언덕앞,126.9637921715,37.6089539753,37.6089539753,126.9637921715,서울특별시,종로구,평창동
199,경희궁자이4단지,126.9621148375,37.5707022242,37.5707022242,126.9621148375,서울특별시,종로구,교남동
200,종로센트레빌후문.e편한세상보문아파트,127.0161855253,37.5817743934,37.5817743934,127.0161855253,서울특별시,종로구,숭인1동
201,사우디대사관앞.경남빌라,126.9850311776,37.5841056738,37.5841056738,126.9850311776,서울특별시,종로구,가회동
202,안국선원.삼거리,126.984994076,37.5827909789,37.5827909789,126.984994076,서울특별시,종로구,가회동
203,구기터널입구,126.9567768927,37.6082046142,37.6082046142,126.9567768927,서울특별시,종로구,평창동
204,종로3가.1.3.5호선,126.9921806628,37.5710729861,37.5710729861,126.9921806628,서울특별시,종로구,종로1.2.3.4가동
205,경복궁,126.9793377561,37.576950157,37.576950157,126.9793377561,서울특별시,종로구,청운효자동
206,경복궁역,126.9722764647,37.5766774815,37.5766774815,126.9722764647,서울특별시,종로구,사직동
207,소나무집,126.964110466,37.6112770717,37.6112770717,126.964110466,서울특별시,종로구,평창동
208,독립문역3번출구,126.9597453483,37.5728784775,37.5728784775,126.9597453483,서울특별시,종로구,교남동
209,청룡사.보문파크뷰자이아파트,127.01700714,37.5800189539,37.5800189539,127.01700714,서울특별시,종로구,숭인1동
210,북촌한옥마을.돈미약국,126.9849422317,37.5815997311,37.5815997311,126.9849422317,서울특별시,종로구,가회동
211,마트앞,126.9586668762,37.6069014195,37.6069014195,126.9586668762,서울특별시,종로구,평창동
212,창덕궁,126.9906200153,37.5760892484,37.5760892484,126.9906200153,서울특별시,종로구,종로1.2.3.4가동
213,세종문화회관,126.9765789285,37.5724108452,37.5724108452,126.9765789285,서울특별시,종로구,사직동
214,혜화역3번출구,127.0019214153,37.5812159103,37.5812159103,127.0019214153,서울특별시,종로구,이화동
215,아름다운실버,126.965463701,37.6120100581,37.6120100581,126.965463701,서울특별시,종로구,평창동
216,독립문초등학교,126.9607207234,37.5738474794,37.5738474794,126.9607207234,서울특별시,종로구,무악동
217,종로센트레빌아파트,127.0156926979,37.58035344050001,37.58035344050001,127.0156926979,서울특별시,종로구,숭인1동
218,가회동주민센터,126.9848497239,37.5799390098,37.5799390098,126.9848497239,서울특별시,종로구,가회동
219,문방구,126.9579797248,37.6062686142,37.6062686142,126.9579797248,서울특별시,종로구,평창동
220,원남로터리,126.997511497,37.5762373738,37.5762373738,126.997511497,서울특별시,종로구,종로1.2.3.4가동
221,보현산신각,126.9657790521,37.6134825236,37.6134825236,126.9657790521,서울특별시,종로구,평창동
222,천사유치원,126.9618603707,37.5746480221,37.5746480221,126.9618603707,서울특별시,종로구,교남동
223,쌍용아파트입구.창신역,127.0149635738,37.580511226,37.580511226,127.0149635738,서울특별시,종로구,창신3동
224,아름다운가게.정독도서관,126.9850220301,37.5788991733,37.5788991733,126.9850220301,서울특별시,종로구,가회동
225,산정빌라,126.9574922002,37.6051519935,37.6051519935,126.9574922002,서울특별시,종로구,평창동
226,이화사거리,127.0020107348,37.5764698644,37.5764698644,127.0020107348,서울특별시,종로구,이화동
227,혜원사,126.9676873462,37.6143102577,37.6143102577,126.9676873462,서울특별시,종로구,평창동
228,무악현대아파트후문,126.962001046,37.5763060751,37.5763060751,126.962001046,서울특별시,종로구,무악동
229,헌법재판소.안국역,126.9856755706,37.5775584314,37.5775584314,126.9856755706,서울특별시,종로구,가회동
230,청구빌라,126.9569839726,37.6046102563,37.6046102563,126.9569839726,서울특별시,종로구,평창동
231,서울대장례식장,126.9995029662,37.5781188768,37.5781188768,126.9995029662,서울특별시,종로구,이화동
232,서울사대초.중교,127.0024794898,37.5775673842,37.5775673842,127.0024794898,서울특별시,종로구,이화동
233,화인빌라,126.9685386165,37.6129345305,37.6129345305,126.9685386165,서울특별시,종로구,평창동
234,넓은마당,126.9628880463,37.5752728058,37.5752728058,126.9628880463,서울특별시,종로구,교남동
235,창신초등학교,127.0153885503,37.5769032044,37.5769032044,127.0153885503,서울특별시,종로구,창신3동
236,수운회관,126.986517218,37.5751598262,37.5751598262,126.986517218,서울특별시,종로구,종로1.2.3.4가동
237,상명대후문,126.9573354115,37.6040255786,37.6040255786,126.9573354115,서울특별시,종로구,부암동
238,혜화역2번출구,127.002256557,37.5811483226,37.5811483226,127.002256557,서울특별시,종로구,이화동
239,힐탑,126.9690205751,37.6116055569,37.6116055569,126.9690205751,서울특별시,종로구,평창동
240,신학대학교총회본부,126.9634445669,37.5739763092,37.5739763092,126.9634445669,서울특별시,종로구,교남동
241,낙원상가,126.9872918609,37.5736776169,37.5736776169,126.9872918609,서울특별시,종로구,종로1.2.3.4가동
242,완성빌라,126.9575011241,37.6034020863,37.6034020863,126.9575011241,서울특별시,종로구,부암동
243,장례식장,126.9974309648,37.5805553988,37.5805553988,126.9974309648,서울특별시,종로구,이화동
244,혜화역1번출구,127.0019407215,37.5834542178,37.5834542178,127.0019407215,서울특별시,종로구,혜화동
245,파라과이대사관,126.9699479367,37.6124059606,37.6124059606,126.9699479367,서울특별시,종로구,평창동
246,한국사회과학자료원,126.9641432573,37.5736332076,37.5736332076,126.9641432573,서울특별시,종로구,사직동
247,동묘역,127.0142453819,37.5726943506,37.5726943506,127.0142453819,서울특별시,종로구,창신1동
248,금강제화,126.9874384317,37.5705445369,37.5705445369,126.9874384317,서울특별시,종로구,종로1.2.3.4가동
249,경진빌라,126.9578303612,37.6020037175,37.6020037175,126.9578303612,서울특별시,종로구,부암동
250,성균관대학교앞,126.9993659265,37.5833082555,37.5833082555,126.9993659265,서울특별시,종로구,혜화동
251,광화문한국통신.KT,126.977317218,37.5719018726,37.5719018726,126.977317218,서울특별시,종로구,종로1.2.3.4가동
252,임마누엘제4천사의집,126.9707007997,37.6134063548,37.6134063548,126.9707007997,서울특별시,종로구,평창동
253,종로문화센터,126.9646261961,37.5746470811,37.5746470811,126.9646261961,서울특별시,종로구,사직동
254,동대문역.2번출구,127.0117218002,37.5720494465,37.5720494465,127.0117218002,서울특별시,종로구,창신2동
255,종각역YMCA,126.9850714936,37.5703393522,37.5703393522,126.9850714936,서울특별시,종로구,종로1.2.3.4가동
256,서교빌라,126.9571553655,37.601989057,37.601989057,126.9571553655,서울특별시,종로구,부암동
257,적선동.경복궁역,126.9724733176,37.5770722054,37.5770722054,126.9724733176,서울특별시,종로구,사직동
258,연건동,127.0007449647,37.5761256624,37.5761256624,127.0007449647,서울특별시,종로구,이화동
259,성대입구,126.998853007,37.5832668015,37.5832668015,126.998853007,서울특별시,종로구,혜화동
260,무애사,126.9718458037,37.6139004282,37.6139004282,126.9718458037,서울특별시,종로구,평창동
261,단군성전앞,126.9653175119,37.5755600915,37.5755600915,126.9653175119,서울특별시,종로구,사직동
262,동대문종합시장,127.0061400046,37.571176058,37.571176058,127.0061400046,서울특별시,종로구,종로5.6가동
263,상명초등학교,126.956715418,37.6009238115,37.6009238115,126.956715418,서울특별시,종로구,부암동
264,법련사,126.9796650539,37.5765879752,37.5765879752,126.9796650539,서울특별시,종로구,삼청동
265,광화문새마을금고,126.9710277184,37.5794930902,37.5794930902,126.9710277184,서울특별시,종로구,청운효자동
266,성균관대학교,126.9972179386,37.5850311082,37.5850311082,126.9972179386,서울특별시,종로구,혜화동
267,제1놀이터,126.9741212409,37.6145722576,37.6145722576,126.9741212409,서울특별시,종로구,평창동
268,활터앞,126.9653293849,37.5768126115,37.5768126115,126.9653293849,서울특별시,종로구,사직동
269,종로5가.3번출구,127.0020898456,37.5714192458,37.5714192458,127.0020898456,서울특별시,종로구,종로5.6가동
270,인사동입구,126.983296967,37.5719470235,37.5719470235,126.983296967,서울특별시,종로구,종로1.2.3.4가동
271,정독도서관,126.9802007494,37.580191528,37.580191528,126.9802007494,서울특별시,종로구,삼청동
272,오거리,126.9697392663,37.5794684375,37.5794684375,126.9697392663,서울특별시,종로구,청운효자동
273,밀알기도원,126.9757438761,37.6163963984,37.6163963984,126.9757438761,서울특별시,종로구,평창동
274,창경궁.고궁호텔.메이플레이스호텔,126.9974492169,37.5765581609,37.5765581609,126.9974492169,서울특별시,종로구,종로1.2.3.4가동
275,광화문,126.9738331615,37.5703260433,37.5703260433,126.9738331615,서울특별시,종로구,사직동
276,종로1가,126.9804546746,37.5703561602,37.5703561602,126.9804546746,서울특별시,종로구,종로1.2.3.4가동
277,종로1가,126.9808260992,37.569954334,37.569954334,126.9808260992,서울특별시,종로구,종로1.2.3.4가동
278,종로2가,126.9855751378,37.5699685262,37.5699685262,126.9855751378,서울특별시,종로구,종로1.2.3.4가동
279,종로3가,126.9899070495,37.5704877661,37.5704877661,126.9899070495,서울특별시,종로구,종로1.2.3.4가동
280,종로3가,126.9909932186,37.5701024255,37.5701024255,126.9909932186,서울특별시,종로구,종로1.2.3.4가동
281,종로4가,126.9968799905,37.5704208133,37.5704208133,126.9968799905,서울특별시,종로구,종로1.2.3.4가동
282,동대문종합시장종로6가,127.0032060634,37.5707920608,37.5707920608,127.0032060634,서울특별시,종로구,종로5.6가동
283,종로도서관,126.9671251598,37.5764842271,37.5764842271,126.9671251598,서울특별시,종로구,사직동
284,경복궁역,126.9715056448,37.5761780936,37.5761780936,126.9715056448,서울특별시,종로구,사직동
285,경복궁역,126.971315603,37.5757554359,37.5757554359,126.971315603,서울특별시,종로구,사직동
286,안국역,126.9852772375,37.5765590725,37.5765590725,126.9852772375,서울특별시,종로구,삼청동
287,안국역,126.9855059829,37.5763185096,37.5763185096,126.9855059829,서울특별시,종로구,종로1.2.3.4가동
288,창덕궁,126.9889000511,37.5774767793,37.5774767793,126.9889000511,서울특별시,종로구,종로1.2.3.4가동
289,성대입구,126.9997033431,37.5835875947,37.5835875947,126.9997033431,서울특별시,종로구,혜화동
290,종로사우나,126.9877503526,37.5738011149,37.5738011149,126.9877503526,서울특별시,종로구,종로1.2.3.4가동
291,엄마분식,126.9557163281,37.6012424257,37.6012424257,126.9557163281,서울특별시,종로구,부암동
292,삼청파출소,126.9813258198,37.58164517,37.58164517,126.9813258198,서울특별시,종로구,삼청동
293,통인시장,126.9687504797,37.5803350289,37.5803350289,126.9687504797,서울특별시,종로구,청운효자동
294,종로5가역,127.0000249058,37.570671358,37.570671358,127.0000249058,서울특별시,종로구,종로1.2.3.4가동
295,사슴목장,126.9770474423,37.6172373713,37.6172373713,126.9770474423,서울특별시,종로구,평창동
296,배화여중고,126.9676775367,37.5767673222,37.5767673222,126.9676775367,서울특별시,종로구,사직동
297,대학로입구.이화사거리,127.0025801998,37.5759841652,37.5759841652,127.0025801998,서울특별시,종로구,이화동
298,운현궁,126.9869813803,37.5752716136,37.5752716136,126.9869813803,서울특별시,종로구,종로1.2.3.4가동
299,상명대입구,126.9569583018,37.6000210109,37.6000210109,126.9569583018,서울특별시,종로구,부암동
300,삼청동주민센터,126.9822105151,37.5846846831,37.5846846831,126.9822105151,서울특별시,종로구,삼청동
301,박노수미술관,126.9668944502,37.5810265604,37.5810265604,126.9668944502,서울특별시,종로구,청운효자동
302,명동의류,126.9783685436,37.616304998,37.616304998,126.9783685436,서울특별시,종로구,평창동
303,사직동주민센터,126.9689039095,37.5762206893,37.5762206893,126.9689039095,서울특별시,종로구,사직동
304,충신시장,127.005404874,37.5749766498,37.5749766498,127.005404874,서울특별시,종로구,종로5.6가동
305,안국역2번출구앞,126.9861183272,37.5771728174,37.5771728174,126.9861183272,서울특별시,종로구,가회동
306,금융연수원,126.981847891,37.5858776706,37.5858776706,126.981847891,서울특별시,종로구,삼청동
307,감람산기도원,126.9798729651,37.6159439291,37.6159439291,126.9798729651,서울특별시,종로구,평창동
308,카센터.터널앞,126.96585932,37.5741644592,37.5741644592,126.96585932,서울특별시,종로구,사직동
309,재동초등학교,126.9853617134,37.578791085,37.578791085,126.9853617134,서울특별시,종로구,가회동
310,하림각,126.9622528507,37.597810653,37.597810653,126.9622528507,서울특별시,종로구,부암동
311,교육과정평가원,126.9817444742,37.5874185176,37.5874185176,126.9817444742,서울특별시,종로구,삼청동
312,이화사거리,127.0022812884,37.5753200672,37.5753200672,127.0022812884,서울특별시,종로구,이화동
313,연화정사,126.9794938432,37.6146490046,37.6146490046,126.9794938432,서울특별시,종로구,평창동
314,대신중고,126.9616893251,37.5726178078,37.5726178078,126.9616893251,서울특별시,종로구,교남동
315,동묘역.롯데캐슬,127.0157921305,37.5740286703,37.5740286703,127.0157921305,서울특별시,종로구,숭인1동
316,현대사거리,126.9866353642,37.5792417814,37.5792417814,126.9866353642,서울특별시,종로구,가회동
317,교남동주민센터,126.9612800199,37.5721522968,37.5721522968,126.9612800199,서울특별시,종로구,교남동
318,부암동주민센터.무계원,126.9637682263,37.5929353403,37.5929353403,126.9637682263,서울특별시,종로구,부암동
319,형제봉매표소,126.9816861503,37.6128643152,37.6128643152,126.9816861503,서울특별시,종로구,평창동
320,교남동새마을금고,126.962337459,37.5714943551,37.5714943551,126.962337459,서울특별시,종로구,교남동
321,창신초교,127.0157200961,37.5760372123,37.5760372123,127.0157200961,서울특별시,종로구,숭인1동
322,가회동주민센터,126.9851293823,37.5799426497,37.5799426497,126.9851293823,서울특별시,종로구,가회동
323,볼링장,126.9879589184,37.5792554401,37.5792554401,126.9879589184,서울특별시,종로구,가회동
324,부암슈퍼,126.9638602023,37.5947600723,37.5947600723,126.9638602023,서울특별시,종로구,부암동
325,지구촌교회,126.9793481616,37.6130468496,37.6130468496,126.9793481616,서울특별시,종로구,평창동
326,월암공원,126.9639860521,37.571188468,37.571188468,126.9639860521,서울특별시,종로구,교남동
327,숭인파출소,127.0155607478,37.5774150014,37.5774150014,127.0155607478,서울특별시,종로구,숭인1동
328,북촌한옥마을.돈미약국,126.9851687446,37.5812807738,37.5812807738,126.9851687446,서울특별시,종로구,가회동
329,하림각,126.9629663842,37.5976847268,37.5976847268,126.9629663842,서울특별시,종로구,부암동
330,보현빌라,126.9782816235,37.6152615256,37.6152615256,126.9782816235,서울특별시,종로구,평창동
331,스위스대사관,126.9658057546,37.569988785,37.569988785,126.9658057546,서울특별시,종로구,교남동
332,창신역.4번출구,127.0155054665,37.5783593519,37.5783593519,127.0155054665,서울특별시,종로구,숭인1동
333,안국선원.삼거리,126.9852205387,37.58274324969999,37.58274324969999,126.9852205387,서울특별시,종로구,가회동
334,세검정교회,126.9594704955,37.5995632468,37.5995632468,126.9594704955,서울특별시,종로구,부암동
335,혜화동로터리,127.0010032298,37.5859196111,37.5859196111,127.0010032298,서울특별시,종로구,혜화동
336,북악휴게실,126.9781122953,37.6132637884,37.6132637884,126.9781122953,서울특별시,종로구,평창동
337,서울시교육청,126.9668249505,37.5692429716,37.5692429716,126.9668249505,서울특별시,종로구,교남동
338,창신쌍용1단지.종로센트레빌아파트,127.0155692785,37.5803228198,37.5803228198,127.0155692785,서울특별시,종로구,숭인1동
339,사우디대사관,126.9852486243,37.58386330800001,37.58386330800001,126.9852486243,서울특별시,종로구,가회동
340,상명대입구,126.9574023475,37.5998544708,37.5998544708,126.9574023475,서울특별시,종로구,부암동
341,혜화초등학교,126.9999909413,37.5873892922,37.5873892922,126.9999909413,서울특별시,종로구,혜화동
342,북악파크,126.9778558349,37.6110083234,37.6110083234,126.9778558349,서울특별시,종로구,평창동
343,강북삼성병원,126.9683376852,37.5685315243,37.5685315243,126.9683376852,서울특별시,종로구,교남동
344,청룡사.보문파크뷰자이아파트,127.0171508787,37.5797846496,37.5797846496,127.0171508787,서울특별시,종로구,숭인1동
345,감사원,126.9855618026,37.5862656518,37.5862656518,126.9855618026,서울특별시,종로구,가회동
346,국민생활관,126.9993137839,37.5896275957,37.5896275957,126.9993137839,서울특별시,종로구,혜화동
347,귀빈예식장,126.9733337071,37.6089952635,37.6089952635,126.9733337071,서울특별시,종로구,평창동
348,종로센트레빌후문.e편한세상보문아파트,127.0162353711,37.5818978359,37.5818978359,127.0162353711,서울특별시,종로구,숭인1동
349,통일부,126.9861073451,37.5875308468,37.5875308468,126.9861073451,서울특별시,종로구,가회동
350,서울국제고등학교,126.9971407875,37.5890742944,37.5890742944,126.9971407875,서울특별시,종로구,혜화동
351,성대후문.와룡공원,126.989734001,37.5891522774,37.5891522774,126.989734001,서울특별시,종로구,혜화동
352,상명초등학교,126.9568173576,37.600904926,37.600904926,126.9568173576,서울특별시,종로구,부암동
353,새마을금고,126.9965690016,37.5878406881,37.5878406881,126.9965690016,서울특별시,종로구,혜화동
354,경진빌라,126.9579482257,37.6018640911,37.6018640911,126.9579482257,서울특별시,종로구,부암동
355,명륜시장.성대후문,126.9952305162,37.5887246101,37.5887246101,126.9952305162,서울특별시,종로구,혜화동
356,완성빌라,126.9576665157,37.6033399708,37.6033399708,126.9576665157,서울특별시,종로구,부암동
357,양현관,126.9937685575,37.5897680031,37.5897680031,126.9937685575,서울특별시,종로구,혜화동
358,상명대후문,126.9574633677,37.6040715802,37.6040715802,126.9574633677,서울특별시,종로구,평창동
359,샘미용실,126.9934084203,37.5902545716,37.5902545716,126.9934084203,서울특별시,종로구,혜화동
360,산정빌라,126.9575782035,37.6052835831,37.6052835831,126.9575782035,서울특별시,종로구,평창동
361,문방구,126.9579809335,37.6061334517,37.6061334517,126.9579809335,서울특별시,종로구,평창동
362,마트앞,126.958756466,37.6066987064,37.6066987064,126.958756466,서울특별시,종로구,평창동
363,국민은행.세검정지점,126.9607859545,37.6048873133,37.6048873133,126.9607859545,서울특별시,종로구,부암동
364,화정박물관,126.965686732,37.604859104,37.604859104,126.965686732,서울특별시,종로구,평창동
365,혜화역4번출구,127.0014561074,37.5834632357,37.5834632357,127.0014561074,서울특별시,종로구,혜화동
366,방송통신대앞,127.0019926794,37.5786973612,37.5786973612,127.0019926794,서울특별시,종로구,이화동
367,서울대치과대학,126.9978748922,37.5773060748,37.5773060748,126.9978748922,서울특별시,종로구,이화동
368,효제초교.연동교회,127.0022087811,37.5736413355,37.5736413355,127.0022087811,서울특별시,종로구,종로5.6가동
369,성균관대학교,126.9900035953,37.5884638684,37.5884638684,126.9900035953,서울특별시,종로구,혜화동
370,독립문역,126.9594077577,37.5732838531,37.5732838531,126.9594077577,서울특별시,종로구,무악동
371,서울대치과대학,126.9977741191,37.5776016307,37.5776016307,126.9977741191,서울특별시,종로구,이화동
372,이화사거리,127.0020084833,37.5769483437,37.5769483437,127.0020084833,서울특별시,종로구,이화동
373,서울대학교병원현관,126.9981567653,37.5789514712,37.5789514712,126.9981567653,서울특별시,종로구,이화동
374,공평.종각,126.9832427053,37.5715937879,37.5715937879,126.9832427053,서울특별시,종로구,종로1.2.3.4가동
375,조계사,126.9831199261,37.5738654222,37.5738654222,126.9831199261,서울특별시,종로구,종로1.2.3.4가동
376,종로경찰서,126.984082977,37.5757100898,37.5757100898,126.984082977,서울특별시,종로구,종로1.2.3.4가동
377,인사동.아벤트리호텔,126.983156342,37.5730319178,37.5730319178,126.983156342,서울특별시,종로구,종로1.2.3.4가동
378,세종문화회관,126.9765653997,37.5722306242,37.5722306242,126.9765653997,서울특별시,종로구,사직동
379,남대문세무서.서울백병원,126.9875299251,37.5649848069,37.5649848069,126.9875299251,서울특별시,중구,명동
380,서울백병원.가톨릭평화방송.국가인권위,126.9878515151,37.5643504711,37.5643504711,126.9878515151,서울특별시,중구,명동
381,서울역버스환승센터,126.9723557945,37.5550251461,37.5550251461,126.9723557945,서울특별시,중구,회현동
382,서울역버스환승센터,126.9725027692,37.5554748264,37.5554748264,126.9725027692,서울특별시,중구,회현동
383,서울역버스환승센터,126.9727617448,37.5553876977,37.5553876977,126.9727617448,서울특별시,중구,회현동
384,서울역버스환승센터,126.9728547738,37.5554794133,37.5554794133,126.9728547738,서울특별시,중구,회현동
385,서울역버스환승센터,126.9731162301,37.5554839786,37.5554839786,126.9731162301,서울특별시,중구,회현동
386,숭례문,126.9737783904,37.5586388574,37.5586388574,126.9737783904,서울특별시,중구,회현동
387,만리동고개,126.9626582054,37.551787064,37.551787064,126.9626582054,서울특별시,중구,중림동
388,손기정체육공원입구,126.9662339013,37.5544459527,37.5544459527,126.9662339013,서울특별시,중구,중림동
389,경기여상입구,126.9679392973,37.5565519034,37.5565519034,126.9679392973,서울특별시,중구,중림동
390,서울역서부,126.9693762438,37.5563255909,37.5563255909,126.9693762438,서울특별시,중구,회현동
391,서울역서부,126.9692772863,37.556997907,37.556997907,126.9692772863,서울특별시,중구,회현동
392,서울역서부,126.9691354395,37.5583836266,37.5583836266,126.9691354395,서울특별시,중구,중림동
393,종근당.충정로역,126.964480544,37.5595131906,37.5595131906,126.964480544,서울특별시,중구,중림동
394,한국경제신문사,126.967766091,37.5604386551,37.5604386551,126.967766091,서울특별시,중구,중림동
395,한국경제신문사,126.9681135141,37.5606234736,37.5606234736,126.9681135141,서울특별시,중구,중림동
396,경찰청.동북아역사재단,126.9691267228,37.5630494858,37.5630494858,126.9691267228,서울특별시,중구,소공동
397,써미트호텔,127.0067839769,37.5624042727,37.5624042727,127.0067839769,서울특별시,중구,장충동
398,서대문경찰서.농협은행,126.9677868059,37.5649062803,37.5649062803,126.9677868059,서울특별시,중구,소공동
399,염천교,126.9733602844,37.5598597457,37.5598597457,126.9733602844,서울특별시,중구,소공동
400,숭례문,126.9731028443,37.558086335,37.558086335,126.9731028443,서울특별시,중구,회현동
401,숭례문.한국일보,126.9737375955,37.5587713091,37.5587713091,126.9737375955,서울특별시,중구,회현동
402,후암삼거리,126.9760823693,37.5533418143,37.5533418143,126.9760823693,서울특별시,중구,회현동
403,숭례문,126.9744042993,37.5587327085,37.5587327085,126.9744042993,서울특별시,중구,회현동
404,숭례문,126.97402,37.558487,37.558487,126.97402,서울특별시,중구,회현동
405,숭례문,126.973698264,37.557960316,37.557960316,126.973698264,서울특별시,중구,회현동
406,남대문시장악세사리전문상가,126.9762051934,37.5586132397,37.5586132397,126.9762051934,서울특별시,중구,회현동
407,숭례문남산방향,126.9756720863,37.5585581643,37.5585581643,126.9756720863,서울특별시,중구,회현동
408,남대문시장,126.9800597585,37.561191081,37.561191081,126.9800597585,서울특별시,중구,회현동
409,북창동.남대문시장,126.97792,37.561175,37.561175,126.97792,서울특별시,중구,회현동
410,시청앞,126.9765581213,37.5623244458,37.5623244458,126.9765581213,서울특별시,중구,소공동
411,삼성본관앞,126.9759075283,37.5620517519,37.5620517519,126.9759075283,서울특별시,중구,소공동
412,시청앞,126.9761427477,37.56276276219999,37.56276276219999,126.9761427477,서울특별시,중구,소공동
413,서소문,126.9748872517,37.5632067407,37.5632067407,126.9748872517,서울특별시,중구,소공동
414,서소문,126.9753398851,37.5636754044,37.5636754044,126.9753398851,서울특별시,중구,소공동
415,서울신문사,126.9773647051,37.5683632936,37.5683632936,126.9773647051,서울특별시,중구,명동
416,우리은행종로지점,126.9829289124,37.5675190047,37.5675190047,126.9829289124,서울특별시,중구,명동
417,롯데백화점,126.982205,37.56451,37.56451,126.982205,서울특별시,중구,소공동
418,해운센터.롯데영프라자,126.9815478394,37.5628907847,37.5628907847,126.9815478394,서울특별시,중구,소공동
419,롯데영프라자,126.982008,37.56288499999999,37.562885,126.982008,서울특별시,중구,명동
420,신세계앞,126.981512142,37.5607641991,37.5607641991,126.981512142,서울특별시,중구,회현동
421,남대문시장.회현역,126.9777650546,37.5582675237,37.5582675237,126.9777650546,서울특별시,중구,회현동
422,남대문시장.회현역,126.9784645011,37.55849202570001,37.55849202570001,126.9784645011,서울특별시,중구,회현동
423,남산3호터널,126.982669512,37.558455773,37.558455773,126.982669512,서울특별시,중구,회현동
424,남산3호터널,126.9827190831,37.5594623018,37.5594623018,126.9827190831,서울특별시,중구,명동
425,명동입구,126.9852407503,37.5606538896,37.5606538896,126.9852407503,서울특별시,중구,명동
426,퇴계로2가.명동역,126.9844913623,37.5608934844,37.5608934844,126.9844913623,서울특별시,중구,명동
427,퇴계로3가.한옥마을.한국의집,126.9917289172,37.5612168046,37.5612168046,126.9917289172,서울특별시,중구,필동
428,퇴계로3가.한옥마을.한국의집,126.9924839556,37.5608717364,37.5608717364,126.9924839556,서울특별시,중구,필동
429,충무로역2번출구.대한극장앞,126.9949175906,37.5612232926,37.5612232926,126.9949175906,서울특별시,중구,필동
430,충무로역8번출구.대한극장앞,126.9965577393,37.5619180947,37.5619180947,126.9965577393,서울특별시,중구,광희동
431,초동,126.9931119513,37.5633461766,37.5633461766,126.9931119513,서울특별시,중구,을지로동
432,을지로입구.로얄호텔,126.9853902774,37.5658757422,37.5658757422,126.9853902774,서울특별시,중구,명동
433,을지로입구.시청입구,126.9811712097,37.5661382638,37.5661382638,126.9811712097,서울특별시,중구,명동
434,을지로2가.기업은행본점.서울노동청,126.9865233528,37.566246226,37.566246226,126.9865233528,서울특별시,중구,명동
435,을지로2가.파인에비뉴,126.9888281722,37.5660094793,37.5660094793,126.9888281722,서울특별시,중구,명동
436,을지로3가,126.9903755882,37.5663556351,37.5663556351,126.9903755882,서울특별시,중구,을지로동
437,을지로3가,126.9913276421,37.5661205237,37.5661205237,126.9913276421,서울특별시,중구,을지로동
438,을지로4가,126.9962179152,37.5666470197,37.5666470197,126.9962179152,서울특별시,중구,을지로동
439,을지로4가.베스트웨스턴국도,126.9968473297,37.5664010399,37.5664010399,126.9968473297,서울특별시,중구,을지로동
440,중구청앞.덕수중학교,126.9981401348,37.5647745951,37.5647745951,126.9981401348,서울특별시,중구,광희동
441,을지로5가,126.999258524,37.56681828550001,37.56681828550001,126.999258524,서울특별시,중구,을지로동
442,을지로5가.중부시장,127.0011150411,37.5666200422,37.5666200422,127.0011150411,서울특별시,중구,을지로동
443,방산시장.훈련원종합체육관,127.0024044565,37.5679608485,37.5679608485,127.0024044565,서울특별시,중구,을지로동
444,을지로5가.훈련원종합체육관,127.0025945654,37.5658243542,37.5658243542,127.0025945654,서울특별시,중구,을지로동
445,을지로6가.국립중앙의료원,127.006377762,37.5660747142,37.5660747142,127.006377762,서울특별시,중구,광희동
446,광희동,127.0072096931,37.5650528273,37.5650528273,127.0072096931,서울특별시,중구,광희동
447,광희동,127.0079579375,37.5649951093,37.5649951093,127.0079579375,서울특별시,중구,광희동
448,을지로6가.국립중앙의료원,127.0058434821,37.5664631128,37.5664631128,127.0058434821,서울특별시,중구,광희동
449,동대문역사문화공원,127.0083555318,37.5673541422,37.5673541422,127.0083555318,서울특별시,중구,광희동
450,동대문역사문화공원,127.0090234611,37.5676036956,37.5676036956,127.0090234611,서울특별시,중구,광희동
451,충무아트센터.스포츠센터.중부소방서,127.0140458533,37.5651927824,37.5651927824,127.0140458533,서울특별시,중구,신당동
452,충무아트센터.스포츠센터.중부소방서,127.0147408667,37.5650178857,37.5650178857,127.0147408667,서울특별시,중구,신당동
453,성동공업고등학교(무궁화회관),127.0157558376,37.56834819239999,37.56834819239999,127.0157558376,서울특별시,중구,신당동
454,성동공업고등학교앞,127.0161294881,37.5686950625,37.5686950625,127.0161294881,서울특별시,중구,신당동
455,신당역.중앙시장앞,127.0187426545,37.5657282804,37.5657282804,127.0187426545,서울특별시,중구,황학동
456,신당역.중앙시장앞,127.0194795301,37.5654920748,37.5654920748,127.0194795301,서울특별시,중구,신당5동
457,성동고등학교,127.022057125,37.5655637088,37.5655637088,127.022057125,서울특별시,중구,황학동
458,성동고등학교,127.0225482999,37.5651806516,37.5651806516,127.0225482999,서울특별시,중구,신당5동
459,신당동떡볶이타운.중구여성플라자,127.0150958594,37.5627660096,37.5627660096,127.0150958594,서울특별시,중구,신당동
460,신당동떡볶이타운.중구여성플라자,127.0151908517,37.5623100443,37.5623100443,127.0151908517,서울특별시,중구,동화동
461,신당동.청구역,127.0132161263,37.5589483023,37.5589483023,127.0132161263,서울특별시,중구,청구동
462,신당동.청구역,127.0130316796,37.559257398,37.559257398,127.0130316796,서울특별시,중구,다산동
463,약수역2번출구.중구구립도서관,127.0111465614,37.5559812136,37.5559812136,127.0111465614,서울특별시,중구,다산동
464,약수역3번출구.약수하이츠,127.0113796895,37.5557496102,37.5557496102,127.0113796895,서울특별시,중구,청구동
465,약수역4번출구.금호터널입구,127.012012,37.553399,37.553399,127.012012,서울특별시,중구,약수동
466,약수역5번출구.금호터널입구,127.0118693353,37.55292373,37.55292373,127.0118693353,서울특별시,중구,약수동
467,약수역8번출구.신당사회복지관,127.0099566945,37.5538646495,37.5538646495,127.0099566945,서울특별시,중구,약수동
468,약수역7번출구.약수동주민센터,127.0092978444,37.5528509718,37.5528509718,127.0092978444,서울특별시,중구,약수동
469,송도병원앞,127.0077186988,37.55026764679999,37.55026764679999,127.0077186988,서울특별시,중구,약수동
470,송도병원앞,127.0073984027,37.550227118,37.550227118,127.0073984027,서울특별시,중구,다산동
471,약수역1번출구,127.0096865168,37.556408461,37.556408461,127.0096865168,서울특별시,중구,다산동
472,장충체육관앞,127.0077840642,37.5584811178,37.5584811178,127.0077840642,서울특별시,중구,장충동
473,장충체육관앞,127.0078281581,37.5580017329,37.5580017329,127.0078281581,서울특별시,중구,장충동
474,장충동.동국대입구,127.0059098097,37.5606213237,37.5606213237,127.0059098097,서울특별시,중구,장충동
475,장충동.동국대입구,127.0056290943,37.5606663921,37.5606663921,127.0056290943,서울특별시,중구,장충동
476,퇴계로6가,127.0039664281,37.5633219814,37.5633219814,127.0039664281,서울특별시,중구,광희동
477,퇴계로6가,127.0032725375,37.56350492449999,37.56350492449999,127.0032725375,서울특별시,중구,광희동
478,퇴계로5가.제일병원,126.9999660413,37.5623804057,37.5623804057,126.9999660413,서울특별시,중구,필동
479,퇴계로5가,126.9998890677,37.5626876784,37.5626876784,126.9998890677,서울특별시,중구,광희동
480,국립극장,127.0003678294,37.5508545113,37.5508545113,127.0003678294,서울특별시,중구,장충동
481,국립극장,127.0009473128,37.5516853176,37.5516853176,127.0009473128,서울특별시,중구,장충동
482,청구역,127.014656108,37.5599600605,37.5599600605,127.014656108,서울특별시,중구,동화동
483,청구역,127.014219181,37.5599303778,37.5599303778,127.014219181,서울특별시,중구,청구동
484,동화동,127.0183371082,37.5599370188,37.5599370188,127.0183371082,서울특별시,중구,동화동
485,동화동,127.0182736903,37.5598126778,37.5598126778,127.0182736903,서울특별시,중구,청구동
486,백범광장,126.980093,37.555737,37.555737,126.980093,서울특별시,중구,회현동
487,남대문경찰서,126.9737449241,37.5540144353,37.5540144353,126.9737449241,서울특별시,중구,회현동
488,남대문시장 앞,126.978580386,37.5609394169,37.5609394169,126.978580386,서울특별시,중구,회현동
489,남산케이블카.남산산책로입구,126.9839798009,37.5552651842,37.5552651842,126.9839798009,서울특별시,중구,회현동
490,서울애니메이션센터숭의여대,126.9875026883,37.5586203825,37.5586203825,126.9875026883,서울특별시,중구,필동
491,동대입구역.장충동,127.0053855469,37.5581343304,37.5581343304,127.0053855469,서울특별시,중구,장충동
492,약수역10번출구,127.009322,37.556256,37.556256,127.009322,서울특별시,중구,다산동
493,청계1가.광교,126.9836249076,37.5684616458,37.5684616458,126.9836249076,서울특별시,중구,명동
494,청계2가.삼일교,126.9885301722,37.5678404706,37.5678404706,126.9885301722,서울특별시,중구,명동
495,청계4가.배오개다리,126.9971755363,37.5684843738,37.5684843738,126.9971755363,서울특별시,중구,을지로동
496,청계5가.방산시장,127.0006713113,37.5691385986,37.5691385986,127.0006713113,서울특별시,중구,을지로동
497,청계6가.평화시장,127.0044818377,37.5693746016,37.5693746016,127.0044818377,서울특별시,중구,을지로동
498,청계7가.동평화.청평화시장,127.0138508174,37.5695135434,37.5695135434,127.0138508174,서울특별시,중구,신당동
499,청계8가.영도교,127.018825398,37.5706509342,37.5706509342,127.018825398,서울특별시,중구,황학동
500,신한은행본점,126.975585201,37.5611965482,37.5611965482,126.975585201,서울특별시,중구,소공동
501,동대문역사문화공원,127.0091092289,37.5654113309,37.5654113309,127.0091092289,서울특별시,중구,광희동
502,버티고개,127.0060242348,37.5478041512,37.5478041512,127.0060242348,서울특별시,중구,다산동
503,버티고개,127.0058182349,37.5474977891,37.5474977891,127.0058182349,서울특별시,중구,약수동
504,청계3가.세운교,126.9938077118,37.5682058077,37.5682058077,126.9938077118,서울특별시,중구,을지로동
505,청계6가.오간수교,127.0090361408,37.5694851752,37.5694851752,127.0090361408,서울특별시,중구,광희동
506,충무로역.매일경제,126.9933464247,37.5616007726,37.5616007726,126.9933464247,서울특별시,중구,필동
507,을지로입구역.광교,126.9824738253,37.567557685,37.567557685,126.9824738253,서울특별시,중구,명동
508,도로교통공단앞,127.0247418084,37.5649390497,37.5649390497,127.0247418084,서울특별시,중구,신당5동
509,명동국민은행앞,126.9825866082,37.5645020967,37.5645020967,126.9825866082,서울특별시,중구,명동
510,남산북측순환로입구,126.9988218165,37.5506986166,37.5506986166,126.9988218165,서울특별시,중구,장충동
511,신당동삼성아파트,127.0187298806,37.5585545048,37.5585545048,127.0187298806,서울특별시,중구,동화동
512,신당동대우푸르지오,127.0191882415,37.5579233138,37.5579233138,127.0191882415,서울특별시,중구,동화동
513,황학동주민센터,127.0234023516,37.5668556166,37.5668556166,127.0234023516,서울특별시,중구,황학동
514,신당초등학교앞,127.0238272352,37.564476647,37.564476647,127.0238272352,서울특별시,중구,신당5동
515,금호베스트빌.삼성래미안아파트,127.0241443772,37.5615426236,37.5615426236,127.0241443772,서울특별시,중구,신당5동
516,금호베스트빌.삼성래미안아파트,127.0243472269,37.5622544456,37.5622544456,127.0243472269,서울특별시,중구,신당5동
517,도로교통공단후문,127.0241667675,37.5642774365,37.5642774365,127.0241667675,서울특별시,중구,신당5동
518,서대문경찰서,126.9675115679,37.5652819605,37.5652819605,126.9675115679,서울특별시,중구,소공동
519,교육연구정보원,126.9803184727,37.5544851841,37.5544851841,126.9803184727,서울특별시,중구,회현동
520,방산종합시장,127.0019301271,37.5678058693,37.5678058693,127.0019301271,서울특별시,중구,을지로동
521,황학동롯데캐슬,127.0221630322,37.5715126997,37.5715126997,127.0221630322,서울특별시,중구,황학동
522,광희문.광희동사거리,127.0086110484,37.5645499236,37.5645499236,127.0086110484,서울특별시,중구,광희동
523,광희문.광희동사거리,127.0094396368,37.56432548820001,37.56432548820001,127.0094396368,서울특별시,중구,광희동
524,황학동롯데캐슬,127.0232394785,37.57094480489999,37.57094480489999,127.0232394785,서울특별시,중구,황학동
525,한국은행.신세계앞,126.9792899798,37.561408112,37.561408112,126.9792899798,서울특별시,중구,회현동
526,서울기동대.광희초등학교,127.0145727542,37.5678671611,37.5678671611,127.0145727542,서울특별시,중구,신당동
527,동대문디자인플라자,127.0119962039,37.567700749,37.567700749,127.0119962039,서울특별시,중구,신당동
528,서대문역사거리.농협중앙회,126.9678855112,37.5669222408,37.5669222408,126.9678855112,서울특별시,중구,소공동
529,서울스퀘어앞,126.97323173,37.555341632,37.555341632,126.97323173,서울특별시,중구,회현동
530,힐튼호텔,126.9766258827,37.5561983921,37.5561983921,126.9766258827,서울특별시,중구,회현동
531,힐튼호텔,126.976717,37.556568,37.556568,126.976717,서울특별시,중구,회현동
532,시청앞.덕수궁,126.9768355729,37.5662122834,37.5662122834,126.9768355729,서울특별시,중구,소공동
533,앰배서더호텔.장충문화체육센터,127.0025921056,37.5601745008,37.5601745008,127.0025921056,서울특별시,중구,장충동
534,약수역.3.6호선,127.0121963673,37.5525416326,37.5525416326,127.0121963673,서울특별시,중구,약수동
535,코리아나호텔,126.9766061418,37.5686550996,37.5686550996,126.9766061418,서울특별시,중구,명동
536,시청역,126.9767938672,37.565635576,37.565635576,126.9767938672,서울특별시,중구,소공동
537,삼성프라자,126.9760669915,37.5624960233,37.5624960233,126.9760669915,서울특별시,중구,소공동
538,서울역,126.9713291252,37.5582012576,37.5582012576,126.9713291252,서울특별시,중구,회현동
539,남대문,126.9762857869,37.5614634146,37.5614634146,126.9762857869,서울특별시,중구,소공동
540,프레스센터,126.9774317996,37.5673567863,37.5673567863,126.9774317996,서울특별시,중구,명동
541,신당역하나은행,127.0215804936,37.5653655565,37.5653655565,127.0215804936,서울특별시,중구,신당5동
542,염천교,126.9709923515,37.5597519575,37.5597519575,126.9709923515,서울특별시,중구,소공동
543,중림동입구,126.969120688,37.558472831,37.558472831,126.969120688,서울특별시,중구,중림동
544,서울역서부,126.969248154,37.5558357207,37.5558357207,126.969248154,서울특별시,중구,회현동
545,한국경제신문사,126.9679526472,37.5609334062,37.5609334062,126.9679526472,서울특별시,중구,중림동
546,신금호파크자이아파트후문,127.0172165788,37.5553289935,37.5553289935,127.0172165788,서울특별시,중구,청구동
547,응봉근린공원.금호산,127.0170566338,37.5537755301,37.5537755301,127.0170566338,서울특별시,성동구,금호2.3가동
548,서울방송고등학교.남산타운아파트,127.012409789,37.5495860191,37.5495860191,127.012409789,서울특별시,중구,약수동
549,서울방송고등학교.남산타운아파트,127.0122830052,37.5494256375,37.5494256375,127.0122830052,서울특별시,성동구,옥수동
550,중구청소년수련관.남산타운2상가,127.0124984104,37.5516450117,37.5516450117,127.0124984104,서울특별시,중구,약수동
551,중구청소년수련관.남산타운2상가,127.0121192688,37.5517045235,37.5517045235,127.0121192688,서울특별시,중구,약수동
552,약수시장.초록마을앞,127.010785999,37.5516046313,37.5516046313,127.010785999,서울특별시,중구,약수동
553,약수지구대,127.0120186912,37.5526524854,37.5526524854,127.0120186912,서울특별시,중구,약수동
554,남대문시장,126.9788338327,37.5613170207,37.5613170207,126.9788338327,서울특별시,중구,회현동
555,롯데호텔,126.9803053067,37.5658047183,37.5658047183,126.9803053067,서울특별시,중구,명동
556,웨스틴조선호텔,126.979685306,37.5642485497,37.5642485497,126.979685306,서울특별시,중구,소공동
557,시청광장,126.9787630365,37.5652072923,37.5652072923,126.9787630365,서울특별시,중구,소공동
558,코리아나호텔,126.9767760218,37.5684226513,37.5684226513,126.9767760218,서울특별시,중구,명동
559,서소문KAL빌딩,126.9746302112,37.5634526841,37.5634526841,126.9746302112,서울특별시,중구,소공동
560,앰배서더호텔,127.0026102024,37.5597717116,37.5597717116,127.0026102024,서울특별시,중구,장충동
561,광화문,126.9767623328,37.568758756,37.568758756,126.9767623328,서울특별시,중구,명동
562,시청덕수궁,126.97677807,37.565471574,37.565471574,126.97677807,서울특별시,중구,소공동
563,바비엥스위트,126.9676372948,37.5651089852,37.5651089852,126.9676372948,서울특별시,중구,소공동
564,서울역,126.9728595843,37.5578195556,37.5578195556,126.9728595843,서울특별시,중구,회현동
565,명동역.세종호텔,126.9865842732,37.5610964868,37.5610964868,126.9865842732,서울특별시,중구,명동
566,충무로역.호텔피제이,126.9955605031,37.5617180187,37.5617180187,126.9955605031,서울특별시,중구,광희동
567,남대문시장,126.9787309255,37.560967378,37.560967378,126.9787309255,서울특별시,중구,회현동
568,이비스엠버서더호텔,126.982612619,37.5646093306,37.5646093306,126.982612619,서울특별시,중구,명동
569,프레이저플레이스,126.9692683016,37.5628476779,37.5628476779,126.9692683016,서울특별시,중구,소공동
570,서울역,126.9713325533,37.5581165556,37.5581165556,126.9713325533,서울특별시,중구,회현동
571,아카시아호텔.웨스턴코업레지던스,127.0034786985,37.5665506121,37.5665506121,127.0034786985,서울특별시,중구,을지로동
572,을지로코업레지던스,127.0053974501,37.5662333554,37.5662333554,127.0053974501,서울특별시,중구,광희동
573,토요코인호텔.이비스버젯호텔,127.0089472544,37.5645913489,37.5645913489,127.0089472544,서울특별시,중구,광희동
574,약수역,127.0098978294,37.5537889625,37.5537889625,127.0098978294,서울특별시,중구,다산동
575,밀레니엄힐튼호텔,126.9759752961,37.5554665731,37.5554665731,126.9759752961,서울특별시,중구,회현동
576,서울역,126.9720456834,37.5580158041,37.5580158041,126.9720456834,서울특별시,중구,회현동
577,라마다.스위트호텔,126.9720684843,37.5606109591,37.5606109591,126.9720684843,서울특별시,중구,소공동
578,라마다서울호텔,127.0451213206,37.5104190338,37.5104190338,127.0451213206,서울특별시,강남구,삼성2동
579,서울플라자호텔,126.9779059345,37.564156195,37.564156195,126.9779059345,서울특별시,중구,소공동
580,시청.서울신문사,126.9773647244,37.568299316,37.568299316,126.9773647244,서울특별시,중구,명동
581,프레이저플레이스남대문,126.9762665716,37.5613760047,37.5613760047,126.9762665716,서울특별시,중구,소공동
582,프레이저플레이스남대문,126.9755365701,37.5610667807,37.5610667807,126.9755365701,서울특별시,중구,소공동
583,동대문역사문화공원,127.009245066,37.5653851887,37.5653851887,127.009245066,서울특별시,중구,광희동
584,KY헤리티지호텔,127.0073975525,37.5645247753,37.5645247753,127.0073975525,서울특별시,중구,광희동
585,동대문디자인플라자,127.0094145732,37.5681390561,37.5681390561,127.0094145732,서울특별시,중구,광희동
586,베이튼호텔,127.0026364414,37.5649993215,37.5649993215,127.0026364414,서울특별시,중구,광희동
587,한강대교북단.LG유플러스,126.9631917349,37.5240898013,37.5240898013,126.9631917349,서울특별시,용산구,한강로동
588,한강대교북단.LG유플러스,126.9631848403,37.5243060629,37.5243060629,126.9631848403,서울특별시,용산구,한강로동
589,신용산역,126.966207,37.527293,37.527293,126.966207,서울특별시,용산구,한강로동
590,신용산역,126.9666192358,37.527920489,37.527920489,126.9666192358,서울특별시,용산구,한강로동
591,KT용산지사,126.9702350163,37.5314970129,37.5314970129,126.9702350163,서울특별시,용산구,한강로동
592,KT용산지사,126.9705640624,37.5320503694,37.5320503694,126.9705640624,서울특별시,용산구,한강로동
593,삼각지역,126.9740117531,37.5352698987,37.5352698987,126.9740117531,서울특별시,용산구,한강로동
594,삼각지역,126.9741608708,37.5359845015,37.5359845015,126.9741608708,서울특별시,용산구,한강로동
595,숙대입구역,126.9725377982,37.543295633,37.543295633,126.9725377982,서울특별시,용산구,남영동
596,숙대입구역,126.9722320769,37.5437560216,37.5437560216,126.9722320769,서울특별시,용산구,남영동
597,갈월동,126.9722373211,37.5509755993,37.5509755993,126.9722373211,서울특별시,용산구,남영동
598,갈월동,126.9717081909,37.5495337218,37.5495337218,126.9717081909,서울특별시,용산구,남영동
599,남영역,126.9719271804,37.542006922,37.542006922,126.9719271804,서울특별시,용산구,남영동
600,남영역,126.9716794679,37.5416932813,37.5416932813,126.9716794679,서울특별시,용산구,남영동
601,신용산역3번출구,126.9670860345,37.5286118013,37.5286118013,126.9670860345,서울특별시,용산구,한강로동
602,한강대교북단,126.9639344725,37.5252902941,37.5252902941,126.9639344725,서울특별시,용산구,한강로동
603,서계동,126.9693404702,37.5524743044,37.5524743044,126.9693404702,서울특별시,용산구,남영동
604,서계동,126.969221961,37.5516704971,37.5516704971,126.969221961,서울특별시,용산구,청파동
605,청파동,126.9701330652,37.5488115567,37.5488115567,126.9701330652,서울특별시,용산구,청파동
606,청파동,126.9698626298,37.548679027,37.548679027,126.9698626298,서울특별시,용산구,청파동
607,숙대입구역.청파동주민센터,126.9707772395,37.54538124739999,37.54538124739999,126.9707772395,서울특별시,용산구,청파동
608,숙대입구역.청파동주민센터,126.9702634348,37.5454135586,37.5454135586,126.9702634348,서울특별시,용산구,청파동
609,남영역,126.971032,37.540813,37.540813,126.971032,서울특별시,용산구,남영동
610,남영역,126.9706761392,37.5405702704,37.5405702704,126.9706761392,서울특별시,용산구,원효로1동
611,용산전자상가17동,126.9660271002,37.5337792589,37.5337792589,126.9660271002,서울특별시,용산구,한강로동
612,용산전자상가19동,126.9654965792,37.5334231716,37.5334231716,126.9654965792,서울특별시,용산구,한강로동
613,용산전자상가10동,126.9619640523,37.5332725045,37.5332725045,126.9619640523,서울특별시,용산구,한강로동
614,용산전자상가12동,126.9622629103,37.5329995678,37.5329995678,126.9622629103,서울특별시,용산구,한강로동
615,용산전자상가.전자랜드,126.9585777029,37.5327640474,37.5327640474,126.9585777029,서울특별시,용산구,한강로동
616,용산전자상가.전자랜드,126.9582528287,37.5329991195,37.5329991195,126.9582528287,서울특별시,용산구,한강로동
617,원효대교북단,126.9560108274,37.5318800435,37.5318800435,126.9560108274,서울특별시,용산구,한강로동
618,용산경찰서,126.9691858135,37.5405032098,37.5405032098,126.9691858135,서울특별시,용산구,원효로1동
619,용산경찰서,126.9690615428,37.5399994643,37.5399994643,126.9690615428,서울특별시,용산구,원효로1동
620,용산꿈나무종합타운.원효로우체국,126.9669290534,37.5386139009,37.5386139009,126.9669290534,서울특별시,용산구,원효로1동
621,용산e편한세상,126.9653759615,37.5373338982,37.5373338982,126.9653759615,서울특별시,용산구,원효로1동
622,남정초등학교,126.9636632444,37.5363187485,37.5363187485,126.9636632444,서울특별시,용산구,원효로1동
623,원효로2가,126.9629911361,37.536237441,37.536237441,126.9629911361,서울특별시,용산구,원효로1동
624,원효로2가사거리,126.9610704217,37.5349338369,37.5349338369,126.9610704217,서울특별시,용산구,원효로1동
625,원효로3가,126.9581798302,37.5340407624,37.5340407624,126.9581798302,서울특별시,용산구,원효로2동
626,원효로3가,126.9583248022,37.53379571510001,37.53379571510001,126.9583248022,서울특별시,용산구,원효로2동
627,용암초등학교입구.이태원주공아파트,126.9886572147,37.543763247,37.543763247,126.9886572147,서울특별시,용산구,용산2가동
628,이태원동남산대림아파트.용산동아파트,126.987449262,37.5397253123,37.5397253123,126.987449262,서울특별시,용산구,이태원2동
629,용산한신아파트,126.9871086322,37.5398054732,37.5398054732,126.9871086322,서울특별시,용산구,용산2가동
630,해방촌,126.9864583325,37.5377076472,37.5377076472,126.9864583325,서울특별시,용산구,용산2가동
631,국군재정관리단,126.9870570383,37.5371418254,37.5371418254,126.9870570383,서울특별시,용산구,이태원2동
632,용산구청.크라운호텔,126.9912039368,37.5302839538,37.5302839538,126.9912039368,서울특별시,용산구,이태원1동
633,용산구청.크라운호텔,126.9911055786,37.5296117273,37.5296117273,126.9911055786,서울특별시,용산구,용산2가동
634,한강중학교,126.9922521773,37.525474865,37.525474865,126.9922521773,서울특별시,용산구,서빙고동
635,한강중학교앞,126.9924287738,37.5245025908,37.5245025908,126.9924287738,서울특별시,용산구,서빙고동
636,서빙고역1번출구,126.9894776223,37.5200094838,37.5200094838,126.9894776223,서울특별시,용산구,서빙고동
637,장충단로입구,127.002202,37.545795,37.545795,127.002202,서울특별시,용산구,한남동
638,남산예술원,127.00204,37.544437,37.544437,127.00204,서울특별시,용산구,한남동
639,서울중부기술교육원.블루스퀘어,127.0035397782,37.5415776794,37.5415776794,127.0035397782,서울특별시,용산구,한남동
640,서울시중부기술교육원.블루스퀘어,127.0031776354,37.5411748997,37.5411748997,127.0031776354,서울특별시,용산구,한남동
641,순천향대학병원,127.0057302453,37.5364422432,37.5364422432,127.0057302453,서울특별시,용산구,한남동
642,순천향대학병원,127.0062993526,37.5356114027,37.5356114027,127.0062993526,서울특별시,용산구,한남동
643,순천향대학병원,127.0054993584,37.5357934643,37.5357934643,127.0054993584,서울특별시,용산구,한남동
644,순천향대학병원.한남오거리,127.0057290409,37.5354906847,37.5354906847,127.0057290409,서울특별시,용산구,한남동
645,한남5거리,127.0083381045,37.5328656324,37.5328656324,127.0083381045,서울특별시,용산구,한남동
646,남산도서관,126.980835,37.552282,37.552282,126.980835,서울특별시,용산구,후암동
647,남산도서관,126.9811340112,37.5520442521,37.5520442521,126.9811340112,서울특별시,용산구,후암동
648,후암약수터,126.98432,37.54869,37.54869,126.98432,서울특별시,용산구,후암동
649,후암약수터,126.9841668777,37.548395263,37.548395263,126.9841668777,서울특별시,용산구,후암동
650,보성여중고입구,126.9858399758,37.5463968458,37.5463968458,126.9858399758,서울특별시,용산구,용산2가동
651,보성여중고입구,126.9856317665,37.5462598541,37.5462598541,126.9856317665,서울특별시,용산구,용산2가동
652,남산체육관,126.9927901963,37.5427038827,37.5427038827,126.9927901963,서울특별시,용산구,이태원2동
653,남산체육관,126.992916961,37.5425047481,37.5425047481,126.992916961,서울특별시,용산구,이태원2동
654,하얏트호텔,126.9962350228,37.54162092510001,37.54162092510001,126.9962350228,서울특별시,용산구,이태원2동
655,하얏트호텔,126.9974210125,37.5408216845,37.5408216845,126.9974210125,서울특별시,용산구,이태원2동
656,용마루고개(서울자동차고등학교),126.9584647114,37.5406368923,37.5406368923,126.9584647114,서울특별시,용산구,효창동
657,용마루고개.효창파크푸르지오아파트,126.9585520334,37.5402999129,37.5402999129,126.9585520334,서울특별시,용산구,효창동
658,효창공원앞역,126.9620345918,37.5392080537,37.5392080537,126.9620345918,서울특별시,용산구,효창동
659,효창공원앞역,126.9624982594,37.5388068257,37.5388068257,126.9624982594,서울특별시,용산구,용문동
660,용산꿈나무종합타운.보건분소,126.9649997667,37.5384268178,37.5384268178,126.9649997667,서울특별시,용산구,원효로1동
661,용산꿈나무종합타운.보건분소,126.964648,37.538295,37.538295,126.964648,서울특별시,용산구,원효로1동
662,문배동등기소앞,126.9670845367,37.5375803863,37.5375803863,126.9670845367,서울특별시,용산구,원효로1동
663,전쟁기념관,126.9768577525,37.5347586674,37.5347586674,126.9768577525,서울특별시,용산구,남영동
664,전쟁기념관,126.9773364922,37.5344334641,37.5344334641,126.9773364922,서울특별시,용산구,한강로동
665,녹사평역,126.9853329261,37.53505378179999,37.53505378179999,126.9853329261,서울특별시,용산구,용산2가동
666,녹사평역,126.9853046955,37.5347582183,37.5347582183,126.9853046955,서울특별시,용산구,용산2가동
667,용산구청.이태원시장,126.9906003503,37.5343631768,37.5343631768,126.9906003503,서울특별시,용산구,이태원1동
668,용산구청.이태원시장,126.9899056291,37.534063054,37.534063054,126.9899056291,서울특별시,용산구,이태원1동
669,이태원역1번출구.해밀턴호텔,126.9929957924,37.5345183319,37.5345183319,126.9929957924,서울특별시,용산구,이태원1동
670,이태원역4번출구.해밀턴호텔,126.9931542295,37.5342768471,37.5342768471,126.9931542295,서울특별시,용산구,이태원1동
671,이태원119안전센터,126.9966370647,37.5347500738,37.5347500738,126.9966370647,서울특별시,용산구,이태원1동
672,이태원119안전센터,126.9971949215,37.5345410337,37.5345410337,126.9971949215,서울특별시,용산구,한남동
673,한남동새마을금고,127.0003213662,37.5368442711,37.5368442711,127.0003213662,서울특별시,용산구,한남동
674,한남동주민센터,127.0006042579,37.5367073033,37.5367073033,127.0006042579,서울특별시,용산구,한남동
675,한강진역.블루스퀘어,127.001669577,37.5407264564,37.5407264564,127.001669577,서울특별시,용산구,한남동
676,한강진역.블루스퀘어,127.0021070988,37.5408748585,37.5408748585,127.0021070988,서울특별시,용산구,한남동
677,서울역,126.973780169,37.5535629948,37.5535629948,126.973780169,서울특별시,용산구,남영동
678,후암3거리,126.9765772255,37.5525408404,37.5525408404,126.9765772255,서울특별시,용산구,후암동
679,후암시장,126.9770644706,37.5506891863,37.5506891863,126.9770644706,서울특별시,용산구,후암동
680,후암시장,126.9775446282,37.5497467332,37.5497467332,126.9775446282,서울특별시,용산구,후암동
681,용산중고,126.9780966281,37.5469110901,37.5469110901,126.9780966281,서울특별시,용산구,후암동
682,용산중고,126.978350169,37.54679039,37.54679039,126.978350169,서울특별시,용산구,후암동
683,후암동우리은행앞,126.9809588102,37.5466989277,37.5466989277,126.9809588102,서울특별시,용산구,후암동
684,용산중고,126.977563,37.54574,37.54574,126.977563,서울특별시,용산구,남영동
685,남영동주민센터,126.976752502,37.5457484198,37.5457484198,126.976752502,서울특별시,용산구,남영동
686,남영동주민센터,126.9750573355,37.5453624049,37.5453624049,126.9750573355,서울특별시,용산구,남영동
687,남영우체국,126.973235384,37.5451241168,37.5451241168,126.973235384,서울특별시,용산구,남영동
688,남영우체국,126.9735080526,37.5453224193,37.5453224193,126.9735080526,서울특별시,용산구,남영동
689,한남시범아파트,127.0122607528,37.5379429734,37.5379429734,127.0122607528,서울특별시,용산구,한남동
690,한남시범아파트,127.0126714787,37.5377041394,37.5377041394,127.0126714787,서울특별시,용산구,한남동
691,한남동,127.0084445845,37.5339127002,37.5339127002,127.0084445845,서울특별시,용산구,한남동
692,한남동,127.0087002913,37.5337549896,37.5337549896,127.0087002913,서울특별시,용산구,한남동
693,이촌동동부센트레빌,126.9661231869,37.5214756887,37.5214756887,126.9661231869,서울특별시,용산구,이촌1동
694,이촌동두산위브트레지움.한강대우아파트,126.9677862417,37.5215067914,37.5215067914,126.9677862417,서울특별시,용산구,이촌1동
695,이촌1동충신교회앞,126.9683361998,37.5212059729,37.5212059729,126.9683361998,서울특별시,용산구,이촌1동
696,이촌동한가람아파트.이촌역,126.9718842721,37.520656299,37.520656299,126.9718842721,서울특별시,용산구,이촌1동
697,이촌동한강맨션.이촌역,126.9728630793,37.5200771209,37.5200771209,126.9728630793,서울특별시,용산구,이촌1동
698,신용산초등학교,126.9745986221,37.5197783418,37.5197783418,126.9745986221,서울특별시,용산구,이촌1동
699,신용산초등학교,126.9761068945,37.5190514691,37.5190514691,126.9761068945,서울특별시,용산구,이촌1동
700,이촌동강촌아파트,126.9776115957,37.5188201813,37.5188201813,126.9776115957,서울특별시,용산구,이촌1동
701,이촌동점보아파트,126.9783561291,37.5183400338,37.5183400338,126.9783561291,서울특별시,용산구,이촌1동
702,이촌동현대아파트,126.9808043144,37.5180656216,37.5180656216,126.9808043144,서울특별시,용산구,이촌1동
703,금강병원.반도아파트,126.9811234284,37.517704332,37.517704332,126.9811234284,서울특별시,용산구,이촌1동
704,서빙고신동아아파트,126.9851948708,37.5179148687,37.5179148687,126.9851948708,서울특별시,용산구,서빙고동
705,서빙고신동아아파트,126.985371435,37.5174859672,37.5174859672,126.985371435,서울특별시,용산구,서빙고동
706,만리동고개,126.9629710339,37.5517155592,37.5517155592,126.9629710339,서울특별시,용산구,청파동
707,손기정체육공원,126.9664230215,37.5542153265,37.5542153265,126.9664230215,서울특별시,용산구,청파동
708,숙대입구역,126.9708398554,37.5444252003,37.5444252003,126.9708398554,서울특별시,용산구,청파동
709,남영역,126.9709244565,37.5422202391,37.5422202391,126.9709244565,서울특별시,용산구,청파동
710,숙명여대도서관앞,126.9672216718,37.5448468654,37.5448468654,126.9672216718,서울특별시,용산구,청파동
711,숙명여대도서관앞,126.9664464653,37.5448412411,37.5448412411,126.9664464653,서울특별시,용산구,청파동
712,숙명여대정문,126.9641094647,37.5449594985,37.5449594985,126.9641094647,서울특별시,용산구,청파동
713,숙명여대정문,126.9643096929,37.5451307674,37.5451307674,126.9643096929,서울특별시,용산구,청파동
714,숙명여대후문,126.9632082782,37.5459093844,37.5459093844,126.9632082782,서울특별시,용산구,청파동
715,효창공원후문,126.9625026885,37.5467620916,37.5467620916,126.9625026885,서울특별시,용산구,효창동
716,한겨레신문사입구,126.9591928852,37.5458806239,37.5458806239,126.9591928852,서울특별시,용산구,효창동
717,대한노인회,126.9576924158,37.5435687851,37.5435687851,126.9576924158,서울특별시,용산구,효창동
718,효창운동장.효창동주민센터,126.9617671315,37.5422095196,37.5422095196,126.9617671315,서울특별시,용산구,효창동
719,국민은행효창동지점,126.9622336676,37.5416239572,37.5416239572,126.9622336676,서울특별시,용산구,효창동
720,서울금양초등학교.국민은행효창동지점,126.9619135936,37.5412679213,37.5412679213,126.9619135936,서울특별시,용산구,효창동
721,효창공원역,126.9610378658,37.5387860159,37.5387860159,126.9610378658,서울특별시,용산구,용문동
722,도원삼성래미안아파트,126.9573923997,37.5398075015,37.5398075015,126.9573923997,서울특별시,용산구,용문동
723,도원삼성래미안아파트,126.9572103137,37.5396254142,37.5396254142,126.9572103137,서울특별시,용산구,용문동
724,중앙하이츠빌라앞,126.9599474139,37.5380179166,37.5380179166,126.9599474139,서울특별시,용산구,용문동
725,중앙하이츠빌라앞,126.959972398,37.5378512222,37.5378512222,126.959972398,서울특별시,용산구,용문동
726,용문시장,126.9607153628,37.5366232765,37.5366232765,126.9607153628,서울특별시,용산구,용문동
727,용문시장,126.9613595571,37.5359792047,37.5359792047,126.9613595571,서울특별시,용산구,원효로1동
728,용산전자상가입구,126.9622225151,37.53457016780001,37.53457016780001,126.9622225151,서울특별시,용산구,원효로1동
729,용산전자상가입구,126.9620268068,37.5344763909,37.5344763909,126.9620268068,서울특별시,용산구,원효로1동
730,신용산.지하차도,126.9639636846,37.5327703191,37.5327703191,126.9639636846,서울특별시,용산구,한강로동
731,신용산.지하차도,126.9638381932,37.5325504129,37.5325504129,126.9638381932,서울특별시,용산구,한강로동
732,신용산역,126.9676784797,37.5300338589,37.5300338589,126.9676784797,서울특별시,용산구,한강로동
733,용산역,126.9654774441,37.5286706489,37.5286706489,126.9654774441,서울특별시,용산구,한강로동
734,용산푸르지오써밋,126.9644200412,37.527252133,37.527252133,126.9644200412,서울특별시,용산구,한강로동
735,용산푸르지오써밋,126.9646779694,37.527330606,37.527330606,126.9646779694,서울특별시,용산구,한강로동
736,용산역광장앞,126.9653975717,37.5283424787,37.5283424787,126.9653975717,서울특별시,용산구,한강로동
737,용산공고,126.9660149714,37.5255972846,37.5255972846,126.9660149714,서울특별시,용산구,한강로동
738,용산공고,126.9672404588,37.5251858288,37.5251858288,126.9672404588,서울특별시,용산구,한강로동
739,용산세무서,126.969325126,37.5236283885,37.5236283885,126.969325126,서울특별시,용산구,한강로동
740,용산세무서,126.970154424,37.5236213922,37.5236213922,126.970154424,서울특별시,용산구,한강로동
741,이촌역,126.9739086458,37.5226689183,37.5226689183,126.9739086458,서울특별시,용산구,한강로동
742,이촌역,126.9739562906,37.5223012804,37.5223012804,126.9739562906,서울특별시,용산구,한강로동
743,국립중앙박물관용산가족공원,126.978370088,37.5209306979,37.5209306979,126.978370088,서울특별시,용산구,서빙고동
744,국립중앙박물관용산가족공원,126.9797989863,37.5208282256,37.5208282256,126.9797989863,서울특별시,용산구,서빙고동
745,서빙고역교차로,126.9900918723,37.5204258449,37.5204258449,126.9900918723,서울특별시,용산구,서빙고동
746,서빙고초등학교,126.9908893645,37.5211711184,37.5211711184,126.9908893645,서울특별시,용산구,서빙고동
747,한강중학교,126.9912554861,37.5248611471,37.5248611471,126.9912554861,서울특별시,용산구,서빙고동
748,금호베스트빌앞,126.9905758027,37.5226191604,37.5226191604,126.9905758027,서울특별시,용산구,서빙고동
749,서빙고동,126.9934202794,37.5198043185,37.5198043185,126.9934202794,서울특별시,용산구,서빙고동
750,서빙고동주민센터,126.9947800822,37.5203261231,37.5203261231,126.9947800822,서울특별시,용산구,서빙고동
751,동빙고동,126.9965437932,37.5207461002,37.5207461002,126.9965437932,서울특별시,용산구,서빙고동
752,동빙고동,126.9968594154,37.5211822412,37.5211822412,126.9968594154,서울특별시,용산구,서빙고동
753,보광신동아아파트삼성리버빌아파트,127.0020297105,37.5247380028,37.5247380028,127.0020297105,서울특별시,용산구,보광동
754,보광동신동아아파트,127.0015149467,37.5256237907,37.5256237907,127.0015149467,서울특별시,용산구,보광동
755,보광동주민센터,127.0005046107,37.5264591178,37.5264591178,127.0005046107,서울특별시,용산구,보광동
756,기업은행보광동지점,126.9994127849,37.5278738421,37.5278738421,126.9994127849,서울특별시,용산구,보광동
757,기업은행보광동지점,126.9988968458,37.5281820141,37.5281820141,126.9988968458,서울특별시,용산구,보광동
758,한국폴리텍1대학,126.9965252457,37.5303662302,37.5303662302,126.9965252457,서울특별시,용산구,보광동
759,한국폴리텍1대학,126.9964449019,37.5305599639,37.5305599639,126.9964449019,서울특별시,용산구,이태원1동
760,이태원역.보광동 입구,126.9941047683,37.5336208994,37.5336208994,126.9941047683,서울특별시,용산구,이태원1동
761,이태원역.보광동입구,126.9942801537,37.5336290179,37.5336290179,126.9942801537,서울특별시,용산구,이태원1동
762,한남역.용산노인종합복지관,127.006795706,37.5312239311,37.5312239311,127.006795706,서울특별시,용산구,한남동
763,한남역.용산노인종합복지관,127.007769858,37.5306687947,37.5306687947,127.007769858,서울특별시,용산구,한남동
764,이촌119안전센터.성촌공원,126.9530904093,37.5301163722,37.5301163722,126.9530904093,서울특별시,용산구,이촌2동
765,이촌2동부영주유소,126.9546065451,37.5301710306,37.5301710306,126.9546065451,서울특별시,용산구,한강로동
766,이촌2동부영주유소,126.954351091,37.529747416,37.529747416,126.954351091,서울특별시,용산구,이촌2동
767,이촌2동주민센터,126.9550639882,37.5277364382,37.5277364382,126.9550639882,서울특별시,용산구,한강로동
768,이촌2동주민센터,126.9546791793,37.5279372361,37.5279372361,126.9546791793,서울특별시,용산구,이촌2동
769,이촌2동대림아파트.새남터성지,126.9563230524,37.5261753068,37.5261753068,126.9563230524,서울특별시,용산구,이촌2동
770,이촌2동대림아파트.새남터성지,126.9561658719,37.5260292706,37.5260292706,126.9561658719,서울특별시,용산구,이촌2동
771,서부이촌동입구,126.9596959751,37.5237192095,37.5237192095,126.9596959751,서울특별시,용산구,한강로동
772,이촌2동강변아파트,126.9597809746,37.5234462055,37.5234462055,126.9597809746,서울특별시,용산구,이촌2동
773,원효2동산호아파트후문,126.949513,37.532707,37.532707,126.949513,서울특별시,용산구,원효로2동
774,청암동강변삼성아파트,126.9482434807,37.5346144292,37.5346144292,126.9482434807,서울특별시,용산구,원효로2동
775,청암동강변삼성아파트,126.9493177472,37.5339679073,37.5339679073,126.9493177472,서울특별시,용산구,원효로2동
776,원효2동산호아파트,126.9505415559,37.5330177683,37.5330177683,126.9505415559,서울특별시,용산구,원효로2동
777,원효2동산호아파트,126.9508277689,37.5331088986,37.5331088986,126.9508277689,서울특별시,용산구,원효로2동
778,현대자동차써비스,126.9535055884,37.5320520946,37.5320520946,126.9535055884,서울특별시,용산구,원효로2동
779,원효로풍전아파트,126.9545135613,37.5323687724,37.5323687724,126.9545135613,서울특별시,용산구,원효로2동
780,원효풍전아파트,126.9560000473,37.5328955766,37.5328955766,126.9560000473,서울특별시,용산구,원효로2동
781,원효2동주민센터,126.9509503798,37.5342145962,37.5342145962,126.9509503798,서울특별시,용산구,원효로2동
782,산천동리버힐삼성아파트,126.9511923413,37.5345003443,37.5345003443,126.9511923413,서울특별시,용산구,원효로2동
783,산천동,126.9540093495,37.5353394953,37.5353394953,126.9540093495,서울특별시,용산구,원효로2동
784,산천동,126.9538044543,37.5354772833,37.5354772833,126.9538044543,서울특별시,용산구,원효로2동
785,신창동세방아파트,126.9550705356,37.5356832219,37.5356832219,126.9550705356,서울특별시,용산구,원효로2동
786,신창동세방아파트,126.9549471079,37.5358300537,37.5358300537,126.9549471079,서울특별시,용산구,원효로2동
787,남이장군사당,126.9579803627,37.5366250384,37.5366250384,126.9579803627,서울특별시,용산구,용문동
788,남이장군사당,126.9582801256,37.5368089685,37.5368089685,126.9582801256,서울특별시,용산구,용문동
789,새마을금고,126.9595337638,37.5370716239,37.5370716239,126.9595337638,서울특별시,용산구,용문동
790,새마을금고,126.9594182807,37.53718692469999,37.53718692469999,126.9594182807,서울특별시,용산구,용문동
791,순천향병원입구,127.0067505734,37.5326305473,37.5326305473,127.0067505734,서울특별시,용산구,한남동
792,남산서울타워,126.9904341348,37.5511379693,37.5511379693,126.9904341348,서울특별시,용산구,용산2가동
793,청심경로당,126.9505603371,37.5337062146,37.5337062146,126.9505603371,서울특별시,용산구,원효로2동
794,삼성테마트,126.9503849242,37.5337466904,37.5337466904,126.9503849242,서울특별시,용산구,원효로2동
795,서빙고동금호베스트빌,126.9909910111,37.5226137862,37.5226137862,126.9909910111,서울특별시,용산구,서빙고동
796,한남동하이페리온,127.0055474264,37.5278439771,37.5278439771,127.0055474264,서울특별시,용산구,한남동
797,서빙고역1번출구,126.9892332591,37.5200013519,37.5200013519,126.9892332591,서울특별시,용산구,서빙고동
798,문배동이안아파트앞,126.971060418,37.5388699959,37.5388699959,126.971060418,서울특별시,용산구,한강로동
799,갈월동4호선숙대입구,126.971590598,37.5462609153,37.5462609153,126.971590598,서울특별시,용산구,남영동
800,삼각지역11번출구,126.974548,37.536204,37.536204,126.974548,서울특별시,용산구,한강로동
801,숙대입구,126.9705229419,37.5445305498,37.5445305498,126.9705229419,서울특별시,용산구,청파동
802,원효대교북단,126.9557526978,37.5321313533,37.5321313533,126.9557526978,서울특별시,용산구,원효로2동
803,문배동이안아파트앞,126.970673645,37.5382706712,37.5382706712,126.970673645,서울특별시,용산구,원효로1동
804,순천향병원입구,127.0069961164,37.532694511,37.532694511,127.0069961164,서울특별시,용산구,한남동
805,숙명여대입구,126.9696434774,37.5448844577,37.5448844577,126.9696434774,서울특별시,용산구,청파동
806,서빙고초등학교,126.9906099662,37.5208412941,37.5208412941,126.9906099662,서울특별시,용산구,서빙고동
807,한강대교전망카페,126.9608161519,37.5213307725,37.5213307725,126.9608161519,서울특별시,용산구,이촌2동
808,한강대교전망카페,126.9614644652,37.5212192495,37.5212192495,126.9614644652,서울특별시,용산구,이촌1동
809,노들섬,126.958488,37.51745,37.51745,126.958488,서울특별시,용산구,이촌2동
810,노들섬,126.959153,37.5175,37.5175,126.959153,서울특별시,용산구,이촌1동
811,용암초등학교.이태원2동주민센터,126.990733,37.544673,37.544673,126.990733,서울특별시,용산구,이태원2동
812,용암초등학교.이태원2동주민센터,126.990917,37.544895,37.544895,126.990917,서울특별시,용산구,이태원2동
813,효창공원삼거리,126.9638368968,37.5446070869,37.5446070869,126.9638368968,서울특별시,용산구,청파동
814,서울역공항철도15번출구.국립극단,126.9688467509,37.5530779085,37.5530779085,126.9688467509,서울특별시,용산구,청파동
815,용산꿈나무종합타운,126.9672402984,37.538486933,37.538486933,126.9672402984,서울특별시,용산구,원효로1동
816,하얏트호텔,126.9969932623,37.5406603781,37.5406603781,126.9969932623,서울특별시,용산구,이태원2동
817,한신아파트,126.9866957386,37.5389827262,37.5389827262,126.9866957386,서울특별시,용산구,용산2가동
818,순천향병원,127.0048157354,37.5332487951,37.5332487951,127.0048157354,서울특별시,용산구,한남동
819,고바우슈퍼,126.9869183825,37.540596615,37.540596615,126.9869183825,서울특별시,용산구,용산2가동
820,한남오거리,127.0066566991,37.5330901125,37.5330901125,127.0066566991,서울특별시,용산구,한남동
821,가야랑앞,126.9936040739,37.5401952774,37.5401952774,126.9936040739,서울특별시,용산구,이태원2동
822,용암한신아파트,126.987435288,37.5420771725,37.5420771725,126.987435288,서울특별시,용산구,용산2가동
823,효창공원후문,126.9608920893,37.5470688427,37.5470688427,126.9608920893,서울특별시,용산구,효창동
824,디지텍고등학교앞,126.9916260429,37.5398031767,37.5398031767,126.9916260429,서울특별시,용산구,이태원2동
825,종점약국,126.9877949646,37.5432315144,37.5432315144,126.9877949646,서울특별시,용산구,용산2가동
826,도원삼성래미안아파트101동앞,126.9563539086,37.5392376293,37.5392376293,126.9563539086,서울특별시,용산구,용문동
827,성도약국,126.9895541036,37.5394506828,37.5394506828,126.9895541036,서울특별시,용산구,이태원2동
828,남산교회입구,126.9866471968,37.5446713415,37.5446713415,126.9866471968,서울특별시,용산구,용산2가동
829,신동아아파트,127.001884905,37.5252245986,37.5252245986,127.001884905,서울특별시,용산구,보광동
830,신애교회,126.9584869002,37.5455190385,37.5455190385,126.9584869002,서울특별시,용산구,효창동
831,시장,126.9885515774,37.53892254719999,37.53892254719999,126.9885515774,서울특별시,용산구,이태원2동
832,해방촌오거리,126.9851474983,37.54572995,37.54572995,126.9851474983,서울특별시,용산구,용산2가동
833,보광동주민센터,127.0000973012,37.5261473387,37.5261473387,127.0000973012,서울특별시,용산구,보광동
834,대한노인회중앙회,126.9575314571,37.5440291874,37.5440291874,126.9575314571,서울특별시,용산구,효창동
835,도원삼성래미안아파트101동앞,126.9564942876,37.539134956,37.539134956,126.9564942876,서울특별시,용산구,용문동
836,신흥교회앞,126.9833867831,37.5447457188,37.5447457188,126.9833867831,서울특별시,용산구,용산2가동
837,군인아파트,126.9963285842,37.52598328179999,37.52598328179999,126.9963285842,서울특별시,용산구,서빙고동
838,원효사.백범김구기념관,126.9585663043,37.5431401733,37.5431401733,126.9585663043,서울특별시,용산구,효창동
839,녹사평역,126.9857368842,37.535070051,37.535070051,126.9857368842,서울특별시,용산구,용산2가동
840,큰빛의집앞,126.9819982464,37.5445481753,37.5445481753,126.9819982464,서울특별시,용산구,용산2가동
841,캐피탈호텔,126.9926263697,37.5285305142,37.5285305142,126.9926263697,서울특별시,용산구,서빙고동
842,후암동종점,126.9813662289,37.5467007949,37.5467007949,126.9813662289,서울특별시,용산구,후암동
843,크라운호텔,126.9914494622,37.5303191147,37.5303191147,126.9914494622,서울특별시,용산구,이태원1동
844,용산고등학교,126.9795092308,37.5461364014,37.5461364014,126.9795092308,서울특별시,용산구,후암동
845,외빈차고,126.9921711943,37.53172938300001,37.53172938300001,126.9921711943,서울특별시,용산구,이태원1동
846,효창공원앞역,126.9614323385,37.5396710223,37.5396710223,126.9614323385,서울특별시,용산구,효창동
847,남영역,126.9718366515,37.5419987906,37.5419987906,126.9718366515,서울특별시,용산구,남영동
848,갈월동사회복지회관,126.9740851958,37.5453901296,37.5453901296,126.9740851958,서울특별시,용산구,남영동
849,청화아파트,126.9950395573,37.5313330553,37.5313330553,126.9950395573,서울특별시,용산구,이태원1동
850,용산경찰서,126.969805735,37.5410233025,37.5410233025,126.969805735,서울특별시,용산구,원효로1동
851,숙대역7번출구,126.9721824017,37.5434370219,37.5434370219,126.9721824017,서울특별시,용산구,남영동
852,보광동삼거리,126.9968250706,37.5307329855,37.5307329855,126.9968250706,서울특별시,용산구,보광동
853,중앙하이츠빌라,126.9594786383,37.5385683269,37.5385683269,126.9594786383,서울특별시,용산구,용문동
854,원효우체국,126.9673193083,37.5389492175,37.5389492175,126.9673193083,서울특별시,용산구,원효로1동
855,보광초등학교,126.9967763907,37.5313430275,37.5313430275,126.9967763907,서울특별시,용산구,이태원1동
856,용문동시장.새마을금고,126.9596343248,37.5373482951,37.5373482951,126.9596343248,서울특별시,용산구,용문동
857,원효1동주민센터앞,126.9669939954,37.5376137016,37.5376137016,126.9669939954,서울특별시,용산구,원효로1동
858,풍년슈퍼앞,126.9984023383,37.5313727969,37.5313727969,126.9984023383,서울특별시,용산구,보광동
859,용문동주민센터,126.9591190202,37.5381473907,37.5381473907,126.9591190202,서울특별시,용산구,용문동
860,용산등기소,126.9696592013,37.536802528,37.536802528,126.9696592013,서울특별시,용산구,원효로1동
861,용산등기소,126.9695900372,37.5371431249,37.5371431249,126.9695900372,서울특별시,용산구,원효로1동
862,영동김밥,127.0007739346,37.5310357946,37.5310357946,127.0007739346,서울특별시,용산구,보광동
863,도깨비시장,127.002245989,37.5308546551,37.5308546551,127.002245989,서울특별시,용산구,보광동
864,리버힐빌라앞,127.0008836966,37.5317260348,37.5317260348,127.0008836966,서울특별시,용산구,한남동
865,신용산역,126.9674544999,37.5299166547,37.5299166547,126.9674544999,서울특별시,용산구,한강로동
866,남영역,126.9720596731,37.5417663607,37.5417663607,126.9720596731,서울특별시,용산구,남영동
867,보광교회,126.99918645,37.5322730017,37.5322730017,126.99918645,서울특별시,용산구,한남동
868,KT용산지점,126.9703153999,37.531376286,37.531376286,126.9703153999,서울특별시,용산구,한강로동
869,숙대역5번출구,126.9725114972,37.54403813,37.54403813,126.9725114972,서울특별시,용산구,남영동
870,이슬람사원,126.9979655399,37.5329884585,37.5329884585,126.9979655399,서울특별시,용산구,한남동
871,삼각지역,126.9733648151,37.5344065033,37.5344065033,126.9733648151,서울특별시,용산구,한강로동
872,갈월동,126.9720930552,37.5463241118,37.5463241118,126.9720930552,서울특별시,용산구,남영동
873,보광초등학교후문앞,126.9956979823,37.5330902217,37.5330902217,126.9956979823,서울특별시,용산구,이태원1동
874,동자동함흥냉면앞,126.9741955461,37.5502867059,37.5502867059,126.9741955461,서울특별시,용산구,남영동
875,이태원역앞,126.9957001828,37.5341805498,37.5341805498,126.9957001828,서울특별시,용산구,이태원1동
876,녹사평역.용산구청,126.9872780389,37.5351206885,37.5351206885,126.9872780389,서울특별시,용산구,이태원2동
877,후암시장,126.9768043541,37.5500664789,37.5500664789,126.9768043541,서울특별시,용산구,후암동
878,이태원랜드,126.9970365066,37.5345365244,37.5345365244,126.9970365066,서울특별시,용산구,한남동
879,후암동주민센터앞,126.9777057507,37.5483644838,37.5483644838,126.9777057507,서울특별시,용산구,후암동
880,제일기획,126.9984396046,37.53487085840001,37.53487085840001,126.9984396046,서울특별시,용산구,한남동
881,대성교회,126.9884520307,37.5386999666,37.5386999666,126.9884520307,서울특별시,용산구,이태원2동
882,용산고,126.9789524928,37.5459083263,37.5459083263,126.9789524928,서울특별시,용산구,용산2가동
883,성도약국,126.9894307824,37.5392776612,37.5392776612,126.9894307824,서울특별시,용산구,이태원2동
884,후암동종점,126.9813594882,37.5465016517,37.5465016517,126.9813594882,서울특별시,용산구,후암동
885,디지텍고등학교앞,126.9918569023,37.5397139842,37.5397139842,126.9918569023,서울특별시,용산구,이태원2동
886,큰빛의집앞,126.9819077271,37.54448328260001,37.54448328260001,126.9819077271,서울특별시,용산구,용산2가동
887,가야랑앞,126.9937523252,37.5400889559,37.5400889559,126.9937523252,서울특별시,용산구,이태원2동
888,신흥교회앞,126.983387942,37.5446231699,37.5446231699,126.983387942,서울특별시,용산구,용산2가동
889,해방촌오거리,126.9853964787,37.5457029481,37.5457029481,126.9853964787,서울특별시,용산구,용산2가동
890,남산교회입구,126.9866223212,37.5445505919,37.5445505919,126.9866223212,서울특별시,용산구,용산2가동
891,기업은행,126.9876591627,37.5432423134,37.5432423134,126.9876591627,서울특별시,용산구,용산2가동
892,용암한신아파트,126.9874137344,37.5423880484,37.5423880484,126.9874137344,서울특별시,용산구,용산2가동
893,고바우슈퍼,126.9869601654,37.5410985304,37.5410985304,126.9869601654,서울특별시,용산구,용산2가동
894,한신아파트,126.986557682,37.5389881171,37.5389881171,126.986557682,서울특별시,용산구,용산2가동
895,갑을빌딩,126.9720388292,37.5490958683,37.5490958683,126.9720388292,서울특별시,용산구,남영동
896,리버힐삼성아파트후문,126.9487207623,37.5349462412,37.5349462412,126.9487207623,서울특별시,용산구,원효로2동
897,만리시장입구,126.9630412782,37.5515678017,37.5515678017,126.9630412782,서울특별시,용산구,청파동
898,배문중고등학교,126.9636168092,37.5503749309,37.5503749309,126.9636168092,서울특별시,용산구,청파동
899,청파초등학교,126.9633754859,37.5485834792,37.5485834792,126.9633754859,서울특별시,용산구,청파동
900,동부이촌동,126.9726729953,37.520139253,37.520139253,126.9726729953,서울특별시,용산구,이촌1동
901,강촌APT,126.9759383157,37.519097391,37.519097391,126.9759383157,서울특별시,용산구,이촌1동
902,금양초등학교,126.9619204101,37.54121566,37.54121566,126.9619204101,서울특별시,용산구,효창동
903,그랜드하얏트호텔,126.9973678608,37.5398259716,37.5398259716,126.9973678608,서울특별시,용산구,한남동
904,청파초등학교,126.9635056923,37.5484699816,37.5484699816,126.9635056923,서울특별시,용산구,청파동
905,청암자이아파트,126.9465552752,37.5345469961,37.5345469961,126.9465552752,서울특별시,용산구,원효로2동
906,배문중고교,126.963728852,37.550381273,37.550381273,126.963728852,서울특별시,용산구,청파동
907,만리시장입구,126.9631453007,37.5517759871,37.5517759871,126.9631453007,서울특별시,용산구,청파동
908,청암자이아파트,126.948603174,37.5348119266,37.5348119266,126.948603174,서울특별시,용산구,원효로2동
909,신동아APT,126.9853623627,37.5175986035,37.5175986035,126.9853623627,서울특별시,용산구,서빙고동
910,크라운호텔,126.9905611354,37.5312787164,37.5312787164,126.9905611354,서울특별시,용산구,이태원1동
911,한남동,127.0054925701,37.5358078821,37.5358078821,127.0054925701,서울특별시,용산구,한남동
912,신동아APT,126.9853034727,37.5179220911,37.5179220911,126.9853034727,서울특별시,용산구,서빙고동
913,강촌APT,126.9773129069,37.5189057287,37.5189057287,126.9773129069,서울특별시,용산구,이촌1동
914,동부이촌동,126.9718175157,37.5206779095,37.5206779095,126.9718175157,서울특별시,용산구,이촌1동
915,이촌동두산위브트레지움,126.9659919434,37.521493673,37.521493673,126.9659919434,서울특별시,용산구,이촌1동
916,이촌동두산위브트레지움,126.9675735406,37.5215283595,37.5215283595,126.9675735406,서울특별시,용산구,이촌1동
917,이촌현대아파트.금강병원,126.9810408412,37.5177187363,37.5177187363,126.9810408412,서울특별시,용산구,이촌1동
918,이촌현대아파트.금강병원,126.9808608941,37.5180052571,37.5180052571,126.9808608941,서울특별시,용산구,이촌1동
919,한남역,127.0067323413,37.5312068138,37.5312068138,127.0067323413,서울특별시,용산구,한남동
920,도원삼성래미안아파트단지내,126.9553881353,37.5381983039,37.5381983039,126.9553881353,서울특별시,용산구,용문동
921,녹사평역.용산구청,126.9853918284,37.5347357017,37.5347357017,126.9853918284,서울특별시,용산구,용산2가동
922,IP부띠끄호텔,126.9984792081,37.5348897819,37.5348897819,126.9984792081,서울특별시,용산구,한남동
923,한남동주민센터,127.0004118772,37.5341698142,37.5341698142,127.0004118772,서울특별시,용산구,한남동
924,용산CJ나인파크,126.9693948263,37.535793231,37.535793231,126.9693948263,서울특별시,용산구,원효로1동
925,용산e편한세상,126.9672466378,37.5343418882,37.5343418882,126.9672466378,서울특별시,용산구,원효로1동
926,이집트대사관.한남더힐아파트,127.011700332,37.536120111,37.536120111,127.011700332,서울특별시,용산구,한남동
927,이집트대사관.한남더힐아파트,127.0114310392,37.5362408844,37.5362408844,127.0114310392,서울특별시,용산구,한남동
928,한남역,127.0077438254,37.5305849943,37.5305849943,127.0077438254,서울특별시,용산구,한남동
929,한남동,127.0088666345,37.5338324716,37.5338324716,127.0088666345,서울특별시,용산구,한남동
930,한남동,127.0085656637,37.533963153,37.533963153,127.0085656637,서울특별시,용산구,한남동
931,필리핀대사관,126.995093255,37.5406999627,37.5406999627,126.995093255,서울특별시,용산구,이태원2동
932,필리핀대사관,126.9951600296,37.5405702075,37.5405702075,126.9951600296,서울특별시,용산구,이태원2동
933,용산역,126.9654284171,37.5283701314,37.5283701314,126.9654284171,서울특별시,용산구,한강로동
934,서울드래곤시티용산,126.9615413216,37.5322684694,37.5322684694,126.9615413216,서울특별시,용산구,한강로동
935,답십리역사거리,127.0543961703,37.5654496127,37.5654496127,127.0543961703,서울특별시,성동구,용답동
936,청년회의소.서울새활용플라자,127.0604880807,37.5619909579,37.5619909579,127.0604880807,서울특별시,성동구,용답동
937,장한평역,127.0661006787,37.5611445259,37.5611445259,127.0661006787,서울특별시,성동구,용답동
938,상왕십리역,127.0292414479,37.5642456516,37.5642456516,127.0292414479,서울특별시,성동구,왕십리2동
939,상왕십리역,127.0286812869,37.5646936321,37.5646936321,127.0286812869,서울특별시,성동구,왕십리도선동
940,왕십리센트라스아파트,127.0250386916,37.5651585235,37.5651585235,127.0250386916,서울특별시,성동구,왕십리도선동
941,왕십리교회,127.0236609459,37.5662092355,37.5662092355,127.0236609459,서울특별시,성동구,왕십리도선동
942,뉴타운아파트,127.0271117739,37.5648196984,37.5648196984,127.0271117739,서울특별시,성동구,왕십리2동
943,청계벽산아파트.텐즈힐아파트,127.030417138,37.5687246853,37.5687246853,127.030417138,서울특별시,성동구,왕십리도선동
944,청계벽산아파트.텐즈힐아파트,127.0300410727,37.5681679066,37.5681679066,127.0300410727,서울특별시,성동구,왕십리도선동
945,왕십리도선동주민센터,127.0245260641,37.5676261467,37.5676261467,127.0245260641,서울특별시,성동구,왕십리도선동
946,왕십리2동주민센터,127.0332625935,37.56244961,37.56244961,127.0332625935,서울특별시,성동구,왕십리2동
947,코스모타워,127.032902865,37.5629822568,37.5629822568,127.032902865,서울특별시,성동구,왕십리2동
948,성동구청,127.0363113248,37.5632074321,37.5632074321,127.0363113248,서울특별시,성동구,행당1동
949,성동구청,127.0359117391,37.5632066532,37.5632066532,127.0359117391,서울특별시,성동구,왕십리도선동
950,상왕십리역,127.0302446401,37.5648716583,37.5648716583,127.0302446401,서울특별시,성동구,왕십리도선동
951,상왕십리역,127.0299695015,37.5655756696,37.5655756696,127.0299695015,서울특별시,성동구,왕십리도선동
952,마장동주민센터,127.04457376,37.5673234964,37.5673234964,127.04457376,서울특별시,성동구,마장동
953,마장역,127.042339301,37.5656275617,37.5656275617,127.042339301,서울특별시,성동구,마장동
954,성동노인복지관,127.0415861333,37.5649375925,37.5649375925,127.0415861333,서울특별시,성동구,마장동
955,마장축산물시장,127.0377069108,37.5696813441,37.5696813441,127.0377069108,서울특별시,성동구,마장동
956,마장축산물시장,127.0375113528,37.5702590064,37.5702590064,127.0375113528,서울특별시,성동구,마장동
957,도선사거리,127.0369085253,37.566824233,37.566824233,127.0369085253,서울특별시,성동구,마장동
958,도선사거리,127.0364339991,37.5663972626,37.5663972626,127.0364339991,서울특별시,성동구,마장동
959,마장동금호아파트,127.041859032,37.5630713327,37.5630713327,127.041859032,서울특별시,성동구,마장동
960,마장동금호아파트,127.0415811922,37.56215772260001,37.56215772260001,127.0415811922,서울특별시,성동구,마장동
961,한양대부속고등학교,127.0415908002,37.5611151543,37.5611151543,127.0415908002,서울특별시,성동구,사근동
962,한양대부속고등학교,127.0411546041,37.5603881249,37.5603881249,127.0411546041,서울특별시,성동구,사근동
963,한양대앞.한양시장,127.0409668475,37.5585823987,37.5585823987,127.0409668475,서울특별시,성동구,사근동
964,한양대앞,127.0407224229,37.5587032298,37.5587032298,127.0407224229,서울특별시,성동구,사근동
965,한양대정문,127.0431286432,37.5563883665,37.5563883665,127.0431286432,서울특별시,성동구,사근동
966,한양대정문앞,127.0433201513,37.5567730635,37.5567730635,127.0433201513,서울특별시,성동구,사근동
967,무학여고앞,127.0342430998,37.558006939,37.558006939,127.0342430998,서울특별시,성동구,행당1동
968,무학여고,127.0338672615,37.5578953118,37.5578953118,127.0338672615,서울특별시,성동구,행당2동
969,왕십리역,127.0361920228,37.5599473134,37.5599473134,127.0361920228,서울특별시,성동구,행당1동
970,왕십리역,127.0362669183,37.5603365628,37.5603365628,127.0362669183,서울특별시,성동구,행당1동
971,왕십리역,127.0348748604,37.5607902321,37.5607902321,127.0348748604,서울특별시,성동구,행당1동
972,행당1동주민센터.성동소방서,127.0386269888,37.5581524645,37.5581524645,127.0386269888,서울특별시,성동구,행당1동
973,행당동삼부아파트,127.0379492742,37.5587230766,37.5587230766,127.0379492742,서울특별시,성동구,행당1동
974,응봉동주민센터,127.0335007802,37.5533989566,37.5533989566,127.0335007802,서울특별시,성동구,응봉동
975,응봉동주민센터,127.0334386918,37.5537612141,37.5537612141,127.0334386918,서울특별시,성동구,응봉동
976,응봉사거리,127.0344580408,37.5552918803,37.5552918803,127.0344580408,서울특별시,성동구,행당1동
977,응봉동현대아파트,127.0304365347,37.5496196936,37.5496196936,127.0304365347,서울특별시,성동구,응봉동
978,응봉동현대아파트,127.0309,37.550222,37.550222,127.0309,서울특별시,성동구,응봉동
979,대경중입구,127.020041931,37.5562746966,37.5562746966,127.020041931,서울특별시,성동구,금호1가동
980,신금호역,127.020117586,37.5556051708,37.5556051708,127.020117586,서울특별시,성동구,금호1가동
981,신금호역,127.019898,37.555268,37.555268,127.019898,서울특별시,성동구,금호2.3가동
982,금호고등학교,127.0225005907,37.5533393896,37.5533393896,127.0225005907,서울특별시,성동구,금호1가동
983,금호고등학교.금호자이1차아파트입구,127.0229328751,37.55310772510001,37.55310772510001,127.0229328751,서울특별시,성동구,금호2.3가동
984,금호동벽산아파트,127.0256791281,37.5511643996,37.5511643996,127.0256791281,서울특별시,성동구,금호1가동
985,래미안하이리버아파트,127.0254234439,37.5514582119,37.5514582119,127.0254234439,서울특별시,성동구,금호2.3가동
986,금호사거리,127.02606314,37.5488791385,37.5488791385,127.02606314,서울특별시,성동구,금호1가동
987,금호사거리,127.0259773298,37.5494639682,37.5494639682,127.0259773298,서울특별시,성동구,금호2.3가동
988,금남시장앞.백범학원터,127.0218686315,37.5480852238,37.5480852238,127.0218686315,서울특별시,성동구,금호4가동
989,금남시장앞.백범학원터,127.022487755,37.5482887551,37.5482887551,127.022487755,서울특별시,성동구,금호2.3가동
990,금호역,127.0162098799,37.5478698733,37.5478698733,127.0162098799,서울특별시,성동구,금호4가동
991,금호역,127.0155079421,37.548503108,37.548503108,127.0155079421,서울특별시,성동구,금호2.3가동
992,금옥초등학교앞,127.0198923146,37.5469673139,37.5469673139,127.0198923146,서울특별시,성동구,금호4가동
993,금옥초등학교앞,127.0183224532,37.5463133725,37.5463133725,127.0183224532,서울특별시,성동구,금호4가동
994,삼성래미안아파트앞,127.0270575925,37.5478877101,37.5478877101,127.0270575925,서울특별시,성동구,금호4가동
995,삼성래미안아파트앞,127.0275127211,37.5483498668,37.5483498668,127.0275127211,서울특별시,성동구,금호4가동
996,옥수동삼성아파트,127.0148475565,37.5436204852,37.5436204852,127.0148475565,서울특별시,성동구,옥수동
997,옥수동삼성아파트,127.0146552078,37.5438034317,37.5438034317,127.0146552078,서울특별시,성동구,옥수동
998,미타사입구,127.0168373163,37.5448556208,37.5448556208,127.0168373163,서울특별시,성동구,옥수동
999,옥수중앙교회,127.0148446166,37.5459155767,37.5459155767,127.0148446166,서울특별시,성동구,옥수동
1000,옥수중앙교회,127.014698,37.545782,37.545782,127.014698,서울특별시,성동구,옥수동
1001,옥수파크힐스아파트앞,127.0140289146,37.5462948786,37.5462948786,127.0140289146,서울특별시,성동구,옥수동
1002,옥수파크힐스아파트앞,127.013905533,37.5461375086,37.5461375086,127.013905533,서울특별시,성동구,옥수동
1003,옥수동종점,127.012585,37.549335,37.549335,127.012585,서울특별시,성동구,옥수동
1004,옥정중학교입구,127.011302745,37.5409040726,37.5409040726,127.011302745,서울특별시,성동구,옥수동
1005,옥정중학교입구,127.0109994635,37.5408770683,37.5408770683,127.0109994635,서울특별시,성동구,옥수동
1006,성수1가1동새마을금고,127.0496949154,37.5381106701,37.5381106701,127.0496949154,서울특별시,성동구,성수1가1동
1007,성수1가새마을금고,127.0497877585,37.5381899276,37.5381899276,127.0497877585,서울특별시,성동구,성수1가1동
1008,천주교성수동성당앞,127.0469322061,37.5391219298,37.5391219298,127.0469322061,서울특별시,성동구,성수1가1동
1009,천주교성수동성당앞,127.0461789398,37.5392542143,37.5392542143,127.0461789398,서울특별시,성동구,성수1가1동
1010,뚝도아리수정수센터수도박물관,127.0441937803,37.5411396402,37.5411396402,127.0441937803,서울특별시,성동구,성수1가1동
1011,뚝도아리수정수센터수도박물관,127.04399,37.541407,37.541407,127.04399,서울특별시,성동구,성수1가1동
1012,서울숲,127.0447086131,37.5429317268,37.5429317268,127.0447086131,서울특별시,성동구,성수1가1동
1013,서울숲,127.044535,37.543503,37.543503,127.044535,서울특별시,성동구,성수1가1동
1014,성동구민종합체육센타,127.0448960891,37.54607197449999,37.54607197449999,127.0448960891,서울특별시,성동구,성수1가1동
1015,성동구민종합체육센타,127.0446065587,37.5463865666,37.5463865666,127.0446065587,서울특별시,성동구,성수1가2동
1016,성수공고앞,127.0504882149,37.5398701754,37.5398701754,127.0504882149,서울특별시,성동구,성수1가1동
1017,성수공고앞,127.0509024434,37.5399537995,37.5399537995,127.0509024434,서울특별시,성동구,성수1가1동
1018,경일초등학교입구,127.0461820347,37.5410911213,37.5410911213,127.0461820347,서울특별시,성동구,성수1가1동
1019,경일초등학교입구,127.0460644927,37.54133176,37.54133176,127.0460644927,서울특별시,성동구,성수1가1동
1020,성동교남단,127.0444852496,37.54983240070001,37.54983240070001,127.0444852496,서울특별시,성동구,성수1가2동
1021,성동교남단,127.0439627696,37.5505075164,37.5505075164,127.0439627696,서울특별시,성동구,성수1가2동
1022,상원,127.0459733296,37.5513591865,37.5513591865,127.0459733296,서울특별시,성동구,성수1가2동
1023,상원,127.0468269187,37.5517093769,37.5517093769,127.0468269187,서울특별시,성동구,성수1가2동
1024,영동대교북단,127.0606419633,37.5367692297,37.5367692297,127.0606419633,서울특별시,성동구,성수2가1동
1025,노룬산시장앞,127.0621966798,37.5394212498,37.5394212498,127.0621966798,서울특별시,성동구,성수2가1동
1026,성수119안전센터,127.060132085,37.5373416869,37.5373416869,127.060132085,서울특별시,성동구,성수2가1동
1027,성수119안전센터,127.059997,37.537532,37.537532,127.059997,서울특별시,성동구,성수2가1동
1028,경수중학교,127.0570118184,37.5381650347,37.5381650347,127.0570118184,서울특별시,성동구,성수2가1동
1029,경수중학교,127.0572982039,37.5382865442,37.5382865442,127.0572982039,서울특별시,성동구,성수2가1동
1030,뚝도시장,127.0553996133,37.5385866142,37.5385866142,127.0553996133,서울특별시,성동구,성수2가1동
1031,뚝도시장,127.0556995743,37.5387045167,37.5387045167,127.0556995743,서울특별시,성동구,성수2가1동
1032,성원중성수동이마트앞,127.0534264696,37.5390939396,37.5390939396,127.0534264696,서울특별시,성동구,성수2가1동
1033,성원중성수동이마트앞,127.0534470134,37.5393390286,37.5393390286,127.0534470134,서울특별시,성동구,성수2가1동
1034,서울숲지구대앞,127.052342,37.537868,37.537868,127.052342,서울특별시,성동구,성수2가1동
1035,서울숲지구대앞,127.0522872422,37.5379013975,37.5379013975,127.0522872422,서울특별시,성동구,성수2가1동
1036,뚝도시장구길,127.05527,37.537192,37.537192,127.05527,서울특별시,성동구,성수2가1동
1037,뚝도시장구길,127.055178017,37.5373179737,37.5373179737,127.055178017,서울특별시,성동구,성수2가1동
1038,성수동대호빌라입구,127.0575775064,37.5365535991,37.5365535991,127.0575775064,서울특별시,성동구,성수2가1동
1039,성수동대호빌라입구,127.0576115116,37.5366292747,37.5366292747,127.0576115116,서울특별시,성동구,성수2가1동
1040,영동대교,127.059982,37.536356,37.536356,127.059982,서울특별시,성동구,성수2가1동
1041,영동대교,127.0603485651,37.536370194,37.536370194,127.0603485651,서울특별시,성동구,성수2가1동
1042,화양사거리,127.0665273113,37.5470178315,37.5470178315,127.0665273113,서울특별시,성동구,성수2가3동
1043,성수초등학교,127.0642659755,37.5428884613,37.5428884613,127.0642659755,서울특별시,성동구,성수2가3동
1044,서울효사랑병원,127.0634352886,37.5414976181,37.5414976181,127.0634352886,서울특별시,성동구,성수2가3동
1045,성수2가3동주민센터,127.0555186071,37.5495060377,37.5495060377,127.0555186071,서울특별시,성동구,성수2가3동
1046,제인병원,127.056942184,37.5492692729,37.5492692729,127.056942184,서울특별시,성동구,송정동
1047,성동세무서앞,127.0624051913,37.5479211772,37.5479211772,127.0624051913,서울특별시,성동구,성수2가3동
1048,성동세무서,127.064337342,37.548239128,37.548239128,127.064337342,서울특별시,성동구,송정동
1049,송정동서울숲아이파크,127.0693826872,37.5519388701,37.5519388701,127.0693826872,서울특별시,성동구,송정동
1050,송정동건영아파트,127.0712975363,37.5553402615,37.5553402615,127.0712975363,서울특별시,성동구,송정동
1051,군자교남단,127.072552576,37.5574868038,37.5574868038,127.072552576,서울특별시,성동구,송정동
1052,신답역,127.0475890193,37.5701373313,37.5701373313,127.0475890193,서울특별시,성동구,용답동
1053,용답동동부시장답십리역,127.0537646939,37.5657022079,37.5657022079,127.0537646939,서울특별시,성동구,용답동
1054,서울교통공사.서울새활용플라자,127.0569134234,37.5620495039,37.5620495039,127.0569134234,서울특별시,성동구,용답동
1055,뚝섬서울숲,127.036407515,37.5445394296,37.5445394296,127.036407515,서울특별시,성동구,성수1가1동
1056,뚝섬서울숲,127.0362416503,37.54555862,37.54555862,127.0362416503,서울특별시,성동구,성수1가1동
1057,사근동하이츠아파트앞,127.0490440068,37.5612869397,37.5612869397,127.0490440068,서울특별시,성동구,사근동
1058,사근동하이츠아파트앞,127.0486881757,37.561306176,37.561306176,127.0486881757,서울특별시,성동구,사근동
1059,사근동주민센터,127.0458353597,37.5607756729,37.5607756729,127.0458353597,서울특별시,성동구,사근동
1060,사근동주민센터,127.0459293903,37.5609062949,37.5609062949,127.0459293903,서울특별시,성동구,사근동
1061,사근고개,127.0445032932,37.5611429275,37.5611429275,127.0445032932,서울특별시,성동구,사근동
1062,사근고개,127.0445101518,37.5612555615,37.5612555615,127.0445101518,서울특별시,성동구,사근동
1063,사근파출소앞,127.0419400148,37.5601265314,37.5601265314,127.0419400148,서울특별시,성동구,사근동
1064,사근파출소앞,127.0419242341,37.5602445802,37.5602445802,127.0419242341,서울특별시,성동구,사근동
1065,사근동벽산아파트,127.0499269056,37.5601892041,37.5601892041,127.0499269056,서울특별시,성동구,사근동
1066,뚝섬역8번출구,127.0456077436,37.5476152783,37.5476152783,127.0456077436,서울특별시,성동구,성수1가2동
1067,뚝섬역2번출구,127.046846,37.547575,37.547575,127.046846,서울특별시,성동구,성수1가2동
1068,뚝섬역3번5번출구,127.0490123822,37.5464722264,37.5464722264,127.0490123822,서울특별시,성동구,성수1가2동
1069,뚝섬역4번출구,127.0493645069,37.5467162766,37.5467162766,127.0493645069,서울특별시,성동구,성수1가2동
1070,성수역,127.0536324349,37.5454312553,37.5454312553,127.0536324349,서울특별시,성동구,성수2가3동
1071,성수동SK아파트형공장앞,127.050228,37.545888,37.545888,127.050228,서울특별시,성동구,성수2가3동
1072,성수동SK아파트형공장앞,127.0500259308,37.545769848,37.545769848,127.0500259308,서울특별시,성동구,성수1가2동
1073,경동초등학교입구,127.0495174396,37.5435218283,37.5435218283,127.0495174396,서울특별시,성동구,성수1가1동
1074,경동초등학교입구,127.049212934,37.5433912967,37.5433912967,127.049212934,서울특별시,성동구,성수1가1동
1075,경일초등학교앞,127.048339853,37.5407658631,37.5407658631,127.048339853,서울특별시,성동구,성수1가1동
1076,경일초등학교앞,127.0482268873,37.54107228199999,37.54107228199999,127.0482268873,서울특별시,성동구,성수1가1동
1077,한양여대앞,127.0503,37.55951,37.55951,127.0503,서울특별시,성동구,사근동
1078,도선고등학교.꽃재교회,127.0284543925,37.5669545454,37.5669545454,127.0284543925,서울특별시,성동구,왕십리도선동
1079,성수역,127.0550045915,37.544619638,37.544619638,127.0550045915,서울특별시,성동구,성수2가3동
1080,리버하우스,127.0510060889,37.5509002648,37.5509002648,127.0510060889,서울특별시,성동구,성수1가2동
1081,리버하우스,127.0506905447,37.5512302013,37.5512302013,127.0506905447,서울특별시,성동구,성수1가2동
1082,성수사거리,127.0623949128,37.5423785433,37.5423785433,127.0623949128,서울특별시,성동구,성수2가3동
1083,성수사거리,127.0625480226,37.5427812522,37.5427812522,127.0625480226,서울특별시,성동구,성수2가3동
1084,성동제일새마을금고,127.0473306455,37.5607795884,37.5607795884,127.0473306455,서울특별시,성동구,사근동
1085,성동제일새마을금고,127.0473012813,37.560884127,37.560884127,127.0473012813,서울특별시,성동구,사근동
1086,청계9가.비우당교,127.025384707,37.5707208923,37.5707208923,127.025384707,서울특별시,성동구,왕십리도선동
1087,뚝섬서울숲,127.0375828865,37.5436397677,37.5436397677,127.0375828865,서울특별시,성동구,성수1가1동
1088,뚝섬서울숲남문,127.0427799915,37.5424629701,37.5424629701,127.0427799915,서울특별시,성동구,성수1가1동
1089,뚝섬서울숲남문,127.042974358,37.5419781098,37.5419781098,127.042974358,서울특별시,성동구,성수1가1동
1090,신답역명문예식장,127.0481794123,37.5692837577,37.5692837577,127.0481794123,서울특별시,성동구,용답동
1091,신답역명문예식장,127.0479373245,37.5695541839,37.5695541839,127.0479373245,서울특별시,성동구,용답동
1092,성수2가3동주민센터,127.0546962994,37.5501678252,37.5501678252,127.0546962994,서울특별시,성동구,송정동
1093,극동그린아파트앞,127.0112564841,37.5418087778,37.5418087778,127.0112564841,서울특별시,성동구,옥수동
1094,마장역,127.0437189272,37.5667706324,37.5667706324,127.0437189272,서울특별시,성동구,마장동
1095,행당신동아.행당푸르지오아파트,127.0340192689,37.5561408382,37.5561408382,127.0340192689,서울특별시,성동구,행당2동
1096,숭신초등학교,127.0280256689,37.5671961236,37.5671961236,127.0280256689,서울특별시,성동구,왕십리도선동
1097,극동아파트,127.0241103983,37.5579661904,37.5579661904,127.0241103983,서울특별시,성동구,왕십리2동
1098,풍림아파트,127.0237711409,37.5589412426,37.5589412426,127.0237711409,서울특별시,성동구,왕십리2동
1099,벽산아파트,127.0256885739,37.555602288,37.555602288,127.0256885739,서울특별시,성동구,행당2동
1100,대림아파트,127.0249260274,37.5565738309,37.5565738309,127.0249260274,서울특별시,성동구,행당2동
1101,행당역,127.0290982639,37.557000896,37.557000896,127.0290982639,서울특별시,성동구,행당2동
1102,행당역,127.0287643907,37.557079373,37.557079373,127.0287643907,서울특별시,성동구,행당2동
1103,무학여고,127.0330162995,37.5583911544,37.5583911544,127.0330162995,서울특별시,성동구,행당1동
1104,극동그린아파트,127.011904958,37.5420646255,37.5420646255,127.011904958,서울특별시,성동구,옥수동
1105,성수동차고지,127.055682,37.535793,37.535793,127.055682,서울특별시,성동구,성수2가1동
1106,제민약국,127.058637781,37.536549473,37.536549473,127.058637781,서울특별시,성동구,성수2가1동
1107,왕십리자이.신당현대아파트,127.02363,37.560847,37.560847,127.02363,서울특별시,성동구,왕십리2동
1108,왕십리자이.신당현대아파트,127.0241501439,37.5612482322,37.5612482322,127.0241501439,서울특별시,성동구,왕십리2동
1109,제민약국,127.058488,37.536507,37.536507,127.058488,서울특별시,성동구,성수2가1동
1110,우리은행화양동지점,127.0662158553,37.5480353432,37.5480353432,127.0662158553,서울특별시,성동구,성수2가3동
1111,황학교.텐즈힐몰,127.0236037286,37.5700517505,37.5700517505,127.0236037286,서울특별시,성동구,왕십리도선동
1112,마장동주민센타,127.0445452295,37.5669378397,37.5669378397,127.0445452295,서울특별시,성동구,마장동
1113,왕십리광장.왕십리역7번출구,127.0366509908,37.56105011010001,37.56105011010001,127.0366509908,서울특별시,성동구,행당1동
1114,왕십리광장.왕십리역4번출구,127.037133352,37.561364441,37.561364441,127.037133352,서울특별시,성동구,행당1동
1115,한양대동문앞,127.0496759962,37.5556432919,37.5556432919,127.0496759962,서울특별시,성동구,사근동
1116,왕십리도선동주민센터,127.0245765636,37.5677753933,37.5677753933,127.0245765636,서울특별시,성동구,왕십리도선동
1117,한양여대앞,127.0508472828,37.5587047103,37.5587047103,127.0508472828,서울특별시,성동구,사근동
1118,행당중학교,127.0431314062,37.5538465022,37.5538465022,127.0431314062,서울특별시,성동구,사근동
1119,송정동현대아이파크아파트,127.0686200823,37.5521871167,37.5521871167,127.0686200823,서울특별시,성동구,송정동
1120,극동아파트5동,127.0110790155,37.5431595377,37.5431595377,127.0110790155,서울특별시,성동구,옥수동
1121,대우아파트관리실,127.019961109,37.5460644045,37.5460644045,127.019961109,서울특별시,성동구,금호4가동
1122,두산아파트정문.금호역,127.0168426701,37.5485311887,37.5485311887,127.0168426701,서울특별시,성동구,금호2.3가동
1123,신금호역,127.0204908209,37.5545931778,37.5545931778,127.0204908209,서울특별시,성동구,금호1가동
1124,옥수역,127.0171918968,37.5414989868,37.5414989868,127.0171918968,서울특별시,성동구,옥수동
1125,송정동자치회관입구,127.0677193879,37.5511802129,37.5511802129,127.0677193879,서울특별시,성동구,송정동
1126,대우아파트후문,127.0216589278,37.5469390691,37.5469390691,127.0216589278,서울특별시,성동구,금호4가동
1127,신금호파크자이아파트후문,127.0173399219,37.5552055255,37.5552055255,127.0173399219,서울특별시,성동구,금호2.3가동
1128,금호1가동주민센터,127.02219553,37.5551290207,37.5551290207,127.02219553,서울특별시,성동구,금호1가동
1129,왕십리민자역사,127.0378535089,37.5618426928,37.5618426928,127.0378535089,서울특별시,성동구,행당1동
1130,무쇠막,127.0246947943,37.545277754,37.545277754,127.0246947943,서울특별시,성동구,금호4가동
1131,럭키슈퍼,127.0670678611,37.5503443688,37.5503443688,127.0670678611,서울특별시,성동구,송정동
1132,금옥초등학교입구,127.0197191404,37.5468898487,37.5468898487,127.0197191404,서울특별시,성동구,금호4가동
1133,대경정보산업고등학교,127.017537043,37.5559714265,37.5559714265,127.017537043,서울특별시,성동구,금호2.3가동
1134,금북초등학교,127.0237361041,37.5555378179,37.5555378179,127.0237361041,서울특별시,성동구,금호1가동
1135,무학여고,127.0339123541,37.5574916088,37.5574916088,127.0339123541,서울특별시,성동구,행당2동
1136,GS주유소,127.0253856278,37.5467445912,37.5467445912,127.0253856278,서울특별시,성동구,금호4가동
1137,중앙슈퍼,127.0664413059,37.5495742869,37.5495742869,127.0664413059,서울특별시,성동구,송정동
1138,극동아파트상가,127.0121008716,37.5429197459,37.5429197459,127.0121008716,서울특별시,성동구,옥수동
1139,모닝후레쉬,127.0225635106,37.5480526537,37.5480526537,127.0225635106,서울특별시,성동구,금호4가동
1140,화단삼거리,127.0198711709,37.5483198616,37.5483198616,127.0198711709,서울특별시,성동구,금호4가동
1141,금호어린이집,127.0183747968,37.5566930754,37.5566930754,127.0183747968,서울특별시,성동구,금호2.3가동
1142,논골.금호동벽산아파트,127.0253489995,37.5555491969,37.5555491969,127.0253489995,서울특별시,성동구,금호1가동
1143,대우푸르지오상가앞,127.0339148443,37.5554938827,37.5554938827,127.0339148443,서울특별시,성동구,행당2동
1144,왕약국,127.0654125668,37.5483178336,37.5483178336,127.0654125668,서울특별시,성동구,송정동
1145,한남하이츠아파트,127.0115923113,37.5400543105,37.5400543105,127.0115923113,서울특별시,성동구,옥수동
1146,금호사거리,127.0252558785,37.5479259552,37.5479259552,127.0252558785,서울특별시,성동구,금호4가동
1147,금호산입구,127.0193922682,37.5563811342,37.5563811342,127.0193922682,서울특별시,성동구,금호2.3가동
1148,한진아파트후문,127.0269971479,37.5560183016,37.5560183016,127.0269971479,서울특별시,성동구,행당2동
1149,신동아아파트후문,127.0327407814,37.5547363938,37.5547363938,127.0327407814,서울특별시,성동구,행당2동
1150,성동세무서,127.0622832163,37.5482249107,37.5482249107,127.0622832163,서울특별시,성동구,송정동
1151,제일감리교회,127.0269036684,37.547866119,37.547866119,127.0269036684,서울특별시,성동구,금호4가동
1152,신금호역,127.019782288,37.554587892,37.554587892,127.019782288,서울특별시,성동구,금호2.3가동
1153,행당역.롯데마트,127.0290563821,37.5569945987,37.5569945987,127.0290563821,서울특별시,성동구,행당2동
1154,대우푸르지오109동앞,127.0316993552,37.5544248994,37.5544248994,127.0316993552,서울특별시,성동구,행당2동
1155,벽산아파트정문,127.0250447845,37.552925275,37.552925275,127.0250447845,서울특별시,성동구,금호1가동
1156,스탠다드차타드은행성수2가지점,127.0559337624,37.5492364144,37.5492364144,127.0559337624,서울특별시,성동구,성수2가3동
1157,옥수종합사회복지관,127.0128519457,37.5408804856,37.5408804856,127.0128519457,서울특별시,성동구,옥수동
1158,응봉동현대아파트,127.0307682168,37.5498025299,37.5498025299,127.0307682168,서울특별시,성동구,응봉동
1159,행당2동주민센터,127.0306537631,37.5577375973,37.5577375973,127.0306537631,서울특별시,성동구,행당2동
1160,삼거리정자앞,127.0316396669,37.5524551228,37.5524551228,127.0316396669,서울특별시,성동구,응봉동
1161,금호119안전센터,127.024633206,37.5541463446,37.5541463446,127.024633206,서울특별시,성동구,금호1가동
1162,성수2가3동주민센터.성수지구대,127.0554656239,37.5482616503,37.5482616503,127.0554656239,서울특별시,성동구,성수2가3동
1163,옥수삼성아파트,127.0139484516,37.540635263,37.540635263,127.0139484516,서울특별시,성동구,옥수동
1164,현대공업사앞,127.0325677907,37.549950728,37.549950728,127.0325677907,서울특별시,성동구,응봉동
1165,두산상가후문,127.0167386956,37.5491853986,37.5491853986,127.0167386956,서울특별시,성동구,금호2.3가동
1166,중앙병원,127.0193175559,37.5519612784,37.5519612784,127.0193175559,서울특별시,성동구,금호2.3가동
1167,무학중학교.무학여고,127.0331282771,37.5582100032,37.5582100032,127.0331282771,서울특별시,성동구,행당2동
1168,만물상회앞,127.03120745,37.5527751264,37.5527751264,127.03120745,서울특별시,성동구,응봉동
1169,논골사거리,127.0248124231,37.5553150263,37.5553150263,127.0248124231,서울특별시,성동구,금호1가동
1170,신한은행,127.054956676,37.5471787717,37.5471787717,127.054956676,서울특별시,성동구,성수2가3동
1171,응봉초등학교.대림아파트,127.0334306978,37.5510678445,37.5510678445,127.0334306978,서울특별시,성동구,응봉동
